stop_id,stop_code,stop_name,stop_desc,stop_lat,stop_lon,zone_id,stop_url,location_type,parent_station,stop_timezone,wheelchair_boarding
262,662,Danforth Rd at Kennedy Rd,,43.714379,-79.260939,,,,,,1
263,929,Davenport Rd at Bedford Rd,,43.674448,-79.399659,,,,,,1
264,940,Davenport Rd at Dupont St,,43.675511,-79.401938,,,,,,2
265,1871,Davisville Ave at Cleveland St,,43.702088,-79.378112,,,,,,1
266,11700,Disco Rd at Attwell Dr,,43.701362,-79.594843,,,,,,1
267,3478,Disco Rd at Attwell Dr,,43.701043,-79.595806,,,,,,1
268,3479,Disco Rd at Carlingview Dr East Side,,43.69981,-79.600769,,,,,,1
269,3480,Disco Rd at Carlingview Dr,,43.699929,-79.601176,,,,,,1
270,14258,Don Mills Rd at Eglinton Ave East,,43.720674,-79.339121,,,,,,1
271,9125,Don Mills Rd at Eglinton Ave East North Side,,43.721373,-79.338926,,,,,,1
273,14255,Don Mills Rd at Lawrence Ave East South Side,,43.736625,-79.343442,,,,,,1
274,1950,Don Mills Rd at Leith Hill Rd,,43.777291,-79.348163,,,,,,1
278,1974,Don Mills Rd at Steeles Ave East,,43.81104,-79.360513,,,,,,1
279,1975,Don Mills Rd at Van Horne Ave,,43.787246,-79.352783,,,,,,1
280,1977,Don Mills Rd at Wynford Dr,,43.722851,-79.339326,,,,,,1
284,5006,Doncaster Ave at Main St West Side,,43.691659,-79.303796,,,,,,1
285,5007,Doncaster Ave at Main St,,43.691607,-79.303525,,,,,,1
286,5008,Doncaster Ave at Main St,,43.691816,-79.303103,,,,,,1
289,9288,Drewry Ave at Gardenia Crt,,43.78388,-79.431676,,,,,,1
290,9275,Drewry Ave at Grantbrook St,,43.783607,-79.433593,,,,,,1
291,979,Dufferin St at Yorkdale Rd,,43.726531,-79.457356,,,,,,1
293,985,Dufferin St at Jane Osler Blvd - Yorkdale Shopping Centre,,43.725083,-79.456993,,,,,,1
294,11630,Dufferin Mall,,43.655795,-79.434031,,,,,,1
295,9856,Dundas St West at Bloor St West,,43.656442,-79.452572,,,,,,2
296,9942,Dundas St West at Jane St East Side,,43.665583,-79.490433,,,,,,2
297,9943,Dundas St West at Jane St West Side,,43.66578,-79.492146,,,,,,2
298,4455,Dundas St West at Runnymede Rd West Side,,43.66565,-79.482921,,,,,,1
300,13702,Dundas St West at Dundas West Outer Platform,,43.656768,-79.453253,,,,,,2
303,13898,Duplex Ave at Eglinton Ave West,,43.70623,-79.400108,,,,,,2
307,11651,East York Town Centre,,43.705908,-79.347132,,,,,,2
308,11181,Eastern Ave at Queen St East South Side,,43.666788,-79.312738,,,,,,1
310,9855,Edna Ave at Dundas St West,,43.657134,-79.453027,,,,,,1
312,2240,Eglinton Ave East at Bayview Ave East Side,,43.711112,-79.376375,,,,,,2
317,2253,Eglinton Ave East at Brimley Rd West Side,,43.736674,-79.248799,,,,,,1
320,3539,Eglinton Ave East at Kennedy Station,,43.732292,-79.267117,,,,,,1
321,5071,Eglinton Ave East at Laird Dr,,43.713371,-79.365372,,,,,,1
322,2288,Eglinton Ave East at Markham Rd West Side,,43.743168,-79.219635,,,,,,1
323,1036,Eglinton Ave East at Midland Ave West Side,,43.734493,-79.258911,,,,,,1
330,11488,Eglinton Ave West at Avenue Rd East Side,,43.704641,-79.407957,,,,,,1
331,9897,Eglinton Ave West at Yonge St,,43.706456,-79.399437,,,,,,1
336,2354,Eglinton Ave West at Glenarden Rd,,43.699564,-79.432546,,,,,,1
337,2366,Eglinton Ave West at Jane St East Side,,43.68452,-79.498076,,,,,,1
338,2380,Eglinton Ave West at Marlee Ave,,43.698127,-79.439204,,,,,,1
339,13440,Eglinton Ave West at Marlee Ave,,43.698177,-79.438962,,,,,,1
340,2388,Eglinton Ave West at Oakwood Ave,,43.697197,-79.442946,,,,,,1
342,9383,Eglinton Ave West at Weston Rd,,43.68671,-79.489925,,,,,,1
343,2419,Eglinton Ave West at Weston Rd,,43.687153,-79.489369,,,,,,1
344,9898,Eglinton Ave West at Yonge St West Side,,43.706695,-79.398957,,,,,,1
345,11506,Eighth St at Birmingham St,,43.602795,-79.507259,,,,,,2
346,3543,Eighth St at Lake Shore Blvd West North Side,,43.60078,-79.506431,,,,,,1
348,10904,Ellesmere Rd at Mirrow Crt,,43.787289,-79.185159,,,,,,2
349,9622,Ellesmere Rd at East Service Rd,,43.767379,-79.273102,,,,,,2
350,9619,Ellesmere Rd at East Service Rd,,43.767743,-79.272603,,,,,,1
351,9604,Ellesmere Rd at McCowan Rd East Side,,43.77225,-79.25047,,,,,,1
352,6368,Ellesmere Rd at Pharmacy Ave,,43.758847,-79.310443,,,,,,1
353,6372,Ellesmere Rd at Victoria Park Ave,,43.758123,-79.31474,,,,,,1
354,9621,Ellesmere Rd at West Service Rd East Side,,43.766111,-79.278977,,,,,,2
355,9620,Ellesmere Rd at West Service Rd,,43.766455,-79.278682,,,,,,2
358,6375,The Esplanade at Lower Jarvis St East Side,,43.648249,-79.370453,,,,,,1
359,2435,Evans Ave at Brown's Line,,43.610792,-79.549007,,,,,,2
362,11202,Farnboro Rd at Attwell Dr East Side,,43.691554,-79.58687,,,,,,1
363,9910,Finch Ave East at Finchdene Sq West Side,,43.815508,-79.231916,,,,,,1
364,9909,Finch Ave East at Neilson Rd West Side,,43.816209,-79.228536,,,,,,1
365,9912,Finch Ave East at Yonge St East Side,,43.779842,-79.414782,,,,,,1
366,4750,Airport Rd at Beverley St,,43.707577,-79.647762,,,,,,2
367,4752,Airport Rd at Bresler Dr West Side,,43.685993,-79.607576,,,,,,2
368,4753,Airport Rd at Bresler Dr,,43.686085,-79.606403,,,,,,2
369,4768,Airport Rd at Victory Cres,,43.707589,-79.647215,,,,,,2
370,6222,Albion Rd at Elmhurst Dr,,43.725042,-79.550293,,,,,,1
371,13427,Albion Rd at Humberline Dr,,43.746942,-79.621692,,,,,,1
372,6228,Albion Rd at Islington Ave,,43.737291,-79.565054,,,,,,2
375,3300,Attwell Dr at Belfield Rd North Side,,43.698444,-79.593272,,,,,,1
376,3297,Attwell Dr at Disco Rd,,43.701039,-79.594894,,,,,,1
377,3299,Attwell Dr at Marmac Dr South Side,,43.695237,-79.589518,,,,,,1
378,9304,Attwell Dr at McLachlan Dr,,43.693656,-79.588761,,,,,,1
379,14093,Aukland Rd at Dundas St West,,43.638954,-79.539233,,,,,,2
381,11238,Avenue Rd at Old Orchard Grove,,43.731855,-79.419461,,,,,,1
383,13478,3174 Bathurst St,,43.721937,-79.430488,,,,,,1
384,134,Bathurst St at Elm Ridge Dr,,43.705395,-79.426541,,,,,,1
386,143,Bathurst St at Glencairn Ave,,43.71225,-79.427979,,,,,,1
388,204,Bathurst St at St Clair Ave West,,43.683275,-79.418455,,,,,,1
390,9719,Bathurst St at Steeles Ave West,,43.792055,-79.445475,,,,,,1
392,11641,Baycrest Home For Aged,,43.729774,-79.434176,,,,,,2
393,11640,Wagman Centre,,43.729171,-79.439941,,,,,,2
394,9122,Bayview Ave at Valleyanna Dr,,43.724199,-79.379442,,,,,,1
395,3325,Belfield Rd at Brockport Dr West Side,,43.698945,-79.588836,,,,,,1
396,3326,Belfield Rd at Brockport Dr,,43.698544,-79.589609,,,,,,1
397,11091,Berry Rd at Park Lawn Rd,,43.635915,-79.494083,,,,,,1
398,1740,Birchmount Rd at Finch Ave East,,43.799148,-79.306217,,,,,,1
399,7549,Birchmount Rd at Highview Ave South Side,,43.69976,-79.265226,,,,,,1
400,7550,Birchmount Rd at Highview Ave,,43.699574,-79.264956,,,,,,1
401,9720,Birchmount Rd at Steeles Ave South Side,,43.820861,-79.316825,,,,,,1
403,526,Bloor St West at Islington Ave West Side,,43.64451,-79.524265,,,,,,1
404,11999,Bloor St West at Islington Ave,,43.644845,-79.52317,,,,,,1
405,9952,Bloor St West at Jane St,,43.649118,-79.484624,,,,,,1
409,12258,Brentcliffe Rd at Vanderhoof Ave,,43.712582,-79.35886,,,,,,2
412,14314,Church St at Lombard St North Side,,43.652135,-79.375233,,,,,,2
413,4886,Church St at Uphill Ave,,43.708692,-79.508365,,,,,,1
416,9534,Cordova Ave at Dundas St West,,43.648728,-79.528413,,,,,,2
418,4908,Coxwell Ave at Mortimer Ave - Michael Garron Hospital,,43.690745,-79.326731,,,,,,1
419,4911,Coxwell Ave at Plains Rd,,43.696055,-79.328913,,,,,,1
425,1842,3450 Danforth Ave,,43.694178,-79.275031,,,,,,1
426,9955,Danforth Ave at Main St,,43.688277,-79.301688,,,,,,1
427,4003,Keele St at Keelegate Dr,,43.73283,-79.483379,,,,,,1
428,11689,Keele St at St Clair Ave West,,43.672216,-79.467341,,,,,,1
429,7899,Keele St at St Clair Ave West,,43.672009,-79.467228,,,,,,1
430,10755,Keele St at Toro Rd,,43.75995,-79.490202,,,,,,1
431,9154,Keele St at Wilson Ave North Side,,43.72718,-79.481969,,,,,,1
432,14141,Wilson Ave at Keele St North Side,,43.727289,-79.481998,,,,,,1
433,2752,Kennedy Rd at Eglinton Ave East,,43.731911,-79.267673,,,,,,1
434,4113,Kennedy Rd at Progress Ave,,43.769265,-79.282028,,,,,,1
435,13624,King St West at Shaw St East Side,,43.641451,-79.414528,,,,,,1
437,4187,King St West at Strachan Ave,,43.641936,-79.412095,,,,,,1
440,4285,Kipling Ave at Belfield Rd - Etobicoke North GO Station,,43.704725,-79.56316,,,,,,1
441,4291,Kipling Ave at Bloor St West North Side,,43.642305,-79.535426,,,,,,1
444,5213,Lansdowne Ave at Davenport Rd South Side,,43.671144,-79.44826,,,,,,2
445,11632,Lansdowne Ave at Dundas St West South Side,,43.649559,-79.439653,,,,,,2
446,11578,Lansdowne Ave at St Clair Ave West,,43.676123,-79.450405,,,,,,1
447,13068,Lawrence Ave East at East Ave - Rouge Hill GO Station,,43.780829,-79.131368,,,,,,1
448,5299,Lawrence Ave East at Orton Park Rd,,43.763877,-79.205766,,,,,,1
449,5357,Lawrence Ave West at Culford Rd,,43.706494,-79.487529,,,,,,1
451,6046,Lawrence Ave West at Scarlett Rd East Side,,43.698378,-79.522285,,,,,,2
452,5410,Lawrence Ave West at Varna Dr West Side,,43.717543,-79.437933,,,,,,1
453,5415,Lawrence Ave West at Weston Rd - Weston GO Station,,43.700276,-79.516006,,,,,,1
454,11638,Lawrence Plaza at Canada Trust,,43.719613,-79.432586,,,,,,1
455,11637,Lawrence Sq at Northwest Entrance,,43.717187,-79.448281,,,,,,1
456,11145,Leslie St at Eastern Ave,,43.661641,-79.329622,,,,,,1
457,5451,Leslie St at Kirkwood Rd North Side,,43.757087,-79.36075,,,,,,1
458,5455,Leslie St at Lawrence Ave East,,43.734288,-79.355687,,,,,,1
459,11377,Leslie St at Queen St East South Side,,43.662648,-79.330047,,,,,,1
461,1242,Lonsdale Rd at Avenue Rd East Side,,43.690834,-79.402303,,,,,,1
462,13366,Exhibition Loop at Manitoba Dr,,43.636511,-79.41471,,,,,,2
463,12584,Exhibition Loop,,43.636331,-79.415373,,,,,,1
465,6528,Toronto Zoo,,43.819735,-79.179955,,,,,,1
466,6527,Toronto Zoo,,43.819606,-79.17988,,,,,,1
467,6526,Toronto Zoo,,43.819273,-79.179669,,,,,,1
470,6530,Rouge Hill GO Station Loop,,43.780905,-79.129822,,,,,,1
471,6532,Humber Loop at The Queensway,,43.631119,-79.478867,,,,,,1
472,6523,Humber Loop at The Queensway,,43.631002,-79.47873,,,,,,1
475,7948,Earlscourt Loop at St Clair Ave West,,43.675983,-79.451027,,,,,,2
477,4435,Long Branch Loop,,43.592111,-79.5437,,,,,,1
478,10927,Queens Quay Loop at Lower Spadina Ave,,43.638419,-79.39184,,,,,,1
485,14061,Westwood Square Bus Terminal at Morning Star Dr,,43.721726,-79.640711,,,,,,2
486,2852,Lumsden Ave at Westlake Ave,,43.694557,-79.307848,,,,,,1
487,11364,Progress Ave at Markham Rd East Side,,43.781933,-79.233259,,,,,,1
488,11635,Toronto Rehab - Bickle Centre at 130 Dunn Ave,,43.635202,-79.432965,,,,,,2
489,11845,Queen St East at Kingston Rd,,43.667029,-79.312948,,,,,,1
490,13461,Queen St East at Kingston Rd,,43.667119,-79.31289,,,,,,2
491,6051,Queen St West at Shaw St,,43.644499,-79.416852,,,,,,1
492,8038,Queen's Park Cres West at Hoskin Ave,,43.665601,-79.393747,,,,,,1
493,1459,Queen's Park Cres East at St Joseph St North Side,,43.66527,-79.391226,,,,,,1
496,12139,The Queensway at Morgan Ave,,43.626433,-79.501779,,,,,,1
497,6920,The Queensway at Stephen Dr,,43.630517,-79.484019,,,,,,2
498,6923,The Queensway at Windermere Ave West Side,,43.637314,-79.470466,,,,,,1
499,11631,55 Rankin Cres,,43.658448,-79.446615,,,,,,2
500,6011,Rathburn Rd at Lloyd Manor Rd,,43.659201,-79.546369,,,,,,1
510,8069,Renforth Dr at Eglinton Ave West,,43.666096,-79.587166,,,,,,1
512,11628,Michael Power / St Joseph H.S.,,43.659476,-79.582965,,,,,,1
513,11627,Michael Power / St Joseph H.S.,,43.659289,-79.582873,,,,,,1
520,6031,Rogers Rd at Keele St,,43.68219,-79.471323,,,,,,1
522,6991,Royal York Rd at Dixon Rd,,43.699615,-79.533986,,,,,,2
523,12175,Royal York Rd at Eglinton Ave West South Side,,43.681704,-79.526478,,,,,,2
526,8082,Sentinel Rd at Finch Ave West,,43.761193,-79.500227,,,,,,1
527,4498,Sentinel Rd at The Pond Rd,,43.769916,-79.502298,,,,,,1
528,10870,Sewells Rd at Brenyon Way East Side,,43.807953,-79.215028,,,,,,1
529,10873,Sewells Rd at Brenyon Way,,43.80792,-79.215527,,,,,,1
530,10871,Sewells Rd at McLevin Ave,,43.810308,-79.213775,,,,,,2
532,7172,Sheppard Ave East at Commons Dr,,43.775706,-79.320546,,,,,,1
533,11025,Sheppard Ave East at Commons Dr,,43.775605,-79.320939,,,,,,1
534,11669,Sheppard Ave East at Meadowvale Rd,,43.80818,-79.171104,,,,,,2
535,13918,Sheppard Ave East at Victoria Park Ave East Side,,43.775286,-79.322236,,,,,,1
536,6069,Sheppard Ave West at Jane St East Side,,43.739369,-79.512583,,,,,,2
537,6087,Sheppard Ave West at Sentinel Rd,,43.743786,-79.491659,,,,,,1
538,4598,Sheppard Ave West at William R Allen Rd West Side,,43.750252,-79.463904,,,,,,1
540,3117,Sherway Gardens Rd at Sherway Gate (Mall),,43.609729,-79.558438,,,,,,1
541,9108,Sherway Gardens Rd at Sherway Gate (Mall) West Side,,43.610024,-79.558228,,,,,,1
542,9109,Sherway Gardens Rd at Sherway Gate (Mall),,43.609785,-79.558022,,,,,,1
543,11587,Sherway Gardens Rd at Sherway Gate (Mall),,43.609847,-79.557773,,,,,,1
549,1262,Main St at Danforth Ave,,43.688037,-79.301635,,,,,,2
550,11826,Main St at Danforth Ave,,43.687796,-79.301532,,,,,,1
551,2855,Main St at Doncaster Ave,,43.691558,-79.303255,,,,,,2
552,1264,Main St at Gerrard St East,,43.684061,-79.300315,,,,,,1
553,13923,Main St at Gerrard St East,,43.684182,-79.300207,,,,,,1
558,13900,Markham Rd at Passmore Ave North Side,,43.831141,-79.250611,,,,,,2
560,11331,Martin Grove Rd at Finch Ave West North Side,,43.737241,-79.591714,,,,,,1
561,5620,Martin Grove Rd at John Garland Blvd,,43.731919,-79.589166,,,,,,1
562,5627,Martin Grove Rd at Mercury Rd,,43.726119,-79.586894,,,,,,1
563,7957,Westhumber Blvd at Martin Grove Rd North Side,,43.726355,-79.586705,,,,,,2
564,1286,2061 McCowan Rd,,43.795441,-79.261074,,,,,,1
565,777,McCowan Rd at Bushby Dr North Side,,43.774936,-79.252175,,,,,,1
566,9993,McCowan Rd at Elson St,,43.834965,-79.27602,,,,,,1
567,9807,McCowan Rd at Steeles Ave East North Side,,43.83177,-79.2752,,,,,,1
568,10577,McCowan Rd at Steeles Ave East South Side,,43.830294,-79.275161,,,,,,1
569,9616,McCowan Rd at Town Centre Crt,,43.774794,-79.252588,,,,,,1
570,2874,1020 McNicoll Ave,,43.804303,-79.335709,,,,,,1
571,12017,McNicoll Ave at Silver Springs Blvd,,43.809896,-79.306447,,,,,,1
572,12035,McNicoll Ave at Silver Springs Blvd,,43.810154,-79.306225,,,,,,1
573,9179,McNicoll Ave at Victoria Park Ave,,43.803924,-79.336632,,,,,,1
574,6575,Meadowvale Rd at Sheppard Ave East,,43.808582,-79.171055,,,,,,1
576,11415,Military Trail at Morningside Ave,,43.789009,-79.193257,,,,,,1
577,5753,Millwood Rd at Overlea Blvd North Side,,43.702117,-79.353246,,,,,,1
578,4484,Millwood Rd at Overlea Blvd,,43.70187,-79.35243,,,,,,1
579,10947,Morningside Ave at Casebridge Crt North Side,,43.809256,-79.20275,,,,,,1
580,11249,Morningside Ave at John Stoner Dr South Side,,43.813037,-79.206022,,,,,,1
581,13906,Nightstar Rd at Morningside Ave North Side,,43.823402,-79.230475,,,,,,1
582,14104,Morningside Ave at Walkway to Raponi Cir,,43.826549,-79.232874,,,,,,1
583,5755,Morning Star Dr at Catalpa Rd,,43.719752,-79.643204,,,,,,2
584,5756,Morning Star Dr at Catalpa Rd,,43.720149,-79.643031,,,,,,1
585,5758,Morning Star Dr at Airport Rd East Side,,43.709985,-79.649766,,,,,,2
586,5759,Morning Star Dr at Lancaster Ave,,43.712757,-79.647418,,,,,,2
587,5760,Morning Star Dr at Manion Rd,,43.71257,-79.647738,,,,,,2
588,5763,Morning Star Dr at Reindeer Dr West Side,,43.714132,-79.646964,,,,,,2
589,5764,Morning Star Dr at Reindeer Dr,,43.714642,-79.646501,,,,,,2
590,5773,Mortimer Ave at Coxwell Ave West Side - Michael Garron Hospital,,43.69056,-79.327056,,,,,,1
591,5813,Mt Pleasant Rd at Eglinton Ave East North Side,,43.708909,-79.3902,,,,,,1
595,1380,Neilson Rd at Finch Ave East South Side,,43.81544,-79.227311,,,,,,1
596,11667,Neilson Rd at Finch Ave East South Side,,43.815638,-79.227412,,,,,,1
597,5904,Oakwood Ave at Eglinton Ave West South Side,,43.696926,-79.442725,,,,,,1
598,5911,Oakwood Ave at Rogers Rd,,43.687031,-79.438568,,,,,,1
599,1419,O'Connor Dr at Pape Ave,,43.693124,-79.350439,,,,,,1
600,4509,Old Weston Rd at St Clair Ave West North Side,,43.673945,-79.463061,,,,,,1
601,11583,Old Weston Rd at St Clair Ave West,,43.673248,-79.462852,,,,,,1
602,4508,Old Weston Rd at St Clair Ave West,,43.673628,-79.463123,,,,,,1
606,8008,Ossington Ave at Bloor St West,,43.661821,-79.425454,,,,,,1
607,9857,Ossington Ave at Bloor St West,,43.662062,-79.425772,,,,,,1
609,2979,Overlea Blvd at Millwood Rd East Side,,43.702452,-79.35223,,,,,,2
610,8009,Overlea Blvd at Millwood Rd,,43.702345,-79.352727,,,,,,1
611,8011,Overlea Blvd at Thorncliffe Park Dr (East),,43.70725,-79.344028,,,,,,1
612,11846,Pape Ave at Lipton Ave North Side,,43.679891,-79.345139,,,,,,1
613,4501,Pape Ave at O'Connor Dr North Side,,43.693657,-79.350372,,,,,,1
614,1451,Parliament St at Carlton St,,43.663906,-79.36772,,,,,,2
615,1452,Parliament St at Gerrard St East,,43.662048,-79.367169,,,,,,2
617,1453,Peter Kaiser Gate at Steeles Ave West,,43.774009,-79.526633,,,,,,1
619,6698,Pharmacy Ave at Ellesmere Rd,,43.758892,-79.310043,,,,,,1
620,9885,Port Union Rd at Adenmore Rd North Side,,43.781768,-79.13747,,,,,,1
623,3587,Finch Ave West at Dufferin St,,43.768624,-79.467298,,,,,,1
624,13709,Finch Ave West at Jane St,,43.757066,-79.518106,,,,,,1
627,11200,Finch Ave West at Martin Grove Rd West Side,,43.736705,-79.59245,,,,,,1
628,12456,Finch Ave West at Rumike Rd East Side,,43.749971,-79.551625,,,,,,2
629,3613,Finch Ave West at Senlac Rd,,43.776326,-79.430344,,,,,,1
630,9821,Finch Ave West at Sentinel Rd East Side,,43.761114,-79.499231,,,,,,1
631,3622,Finch Ave West at Wilmington Ave,,43.770054,-79.460827,,,,,,1
632,10210,Fleet St at Bathurst St,,43.63647,-79.400131,,,,,,1
638,2646,Freshmeadow Dr at Don Mills Rd,,43.809241,-79.358694,,,,,,1
639,9116,Freshmeadow Dr at Don Mills Rd,,43.809161,-79.358829,,,,,,1
641,9406,Front St West at Bay St East Side - Union Station,,43.645995,-79.378521,,,,,,1
642,12491,Glen Rd at South Dr,,43.677754,-79.375178,,,,,,2
643,7480,Lawson Rd at Kingston Rd (Highway 2A Overpass),,43.784126,-79.168334,,,,,,1
644,6625,Highland Creek Overpass at Kingston Rd,,43.784451,-79.168491,,,,,,1
645,11560,Highland Creek Overpass at Kingston Rd,,43.784282,-79.168278,,,,,,1
646,11504,Highway 27 at Queen's Plate Dr - Woodbine Centre,,43.722448,-79.597785,,,,,,1
648,12196,Humber College Blvd at Humberline Dr South Side,,43.731793,-79.608899,,,,,,1
649,7861,Humber College Blvd at Humberline Dr,,43.73228,-79.609412,,,,,,1
650,12064,Humberline Dr at Humber College Blvd West Side,,43.731956,-79.609689,,,,,,1
651,11049,Humberline Dr at Humber College Blvd,,43.731861,-79.609562,,,,,,1
654,9901,Islington Ave at Bloor St West North Side,,43.64541,-79.523592,,,,,,1
655,13363,Islington Ave at Bloor St West,,43.644497,-79.523193,,,,,,1
656,9902,Islington Ave at Bloor St West,,43.644861,-79.523693,,,,,,1
657,3772,Islington Ave at Central Park Roadway South Side,,43.648075,-79.525021,,,,,,1
658,3791,Islington Ave at Finch Ave West,,43.745841,-79.568376,,,,,,1
660,3863,Jane St at Annette St,,43.658168,-79.487997,,,,,,1
661,3878,Jane St at Trethewey Dr,,43.697819,-79.502577,,,,,,1
662,3891,Jane St at Finch Ave West South Side,,43.756377,-79.517646,,,,,,1
663,3903,Jane St at Heathrow Dr,,43.724803,-79.509439,,,,,,1
664,10411,Jane St at Hullmar Dr,,43.772801,-79.521145,,,,,,1
665,3904,Jane St at Hullmar Dr,,43.773357,-79.521585,,,,,,1
666,11842,Jane St at Lambton Ave,,43.68093,-79.497522,,,,,,1
667,3916,Jane St at Pritchard Ave,,43.669731,-79.493013,,,,,,1
668,2740,Jane St at Wright Ave,,43.701092,-79.503411,,,,,,1
669,10412,Jane St at Steeles Ave West,,43.775288,-79.521497,,,,,,1
680,12146,John Garland Blvd at Finch Ave West South Side,,43.73531,-79.594657,,,,,,1
681,11199,John Garland Blvd at Finch Ave West,,43.735579,-79.594631,,,,,,1
683,9149,Keele St at Finch Ave West North Side - Finch West Station,,43.764093,-79.490996,,,,,,1
685,11321,Keele St at Finch Ave West - Finch West Station,,43.763952,-79.491402,,,,,,1
686,7898,St Clair Ave West at Keele St/ Weston Rd,,43.672376,-79.467746,,,,,,1
687,6338,Crescent Rd at South Dr (West),,43.678317,-79.382775,,,,,,1
688,1080,Gerrard St East at Blackburn St,,43.664667,-79.355383,,,,,,2
689,5221,Lansdowne Ave at Seaforth Ave,,43.642783,-79.437588,,,,,,1
690,13313,Scarlett Rd at Foxwell St,,43.669109,-79.501269,,,,,,2
692,2381,Eglinton Ave West at Martin Grove Rd,,43.674662,-79.562929,,,,,,1
693,6931,Ranee Ave at Varna Dr - Yorkdale Station,,43.723727,-79.446059,,,,,,1
694,4973,Dixon Rd at 950 Dixon Rd,,43.686752,-79.598885,,,,,,1
695,1301,McCowan Rd at Kenhatch Blvd,,43.801324,-79.263574,,,,,,1
696,546,Bloor St West at Markland Dr (East) East Side,,43.633599,-79.570302,,,,,,1
697,8179,St Clair Ave West at Old Weston Rd,,43.673441,-79.463154,,,,,,1
699,3336,Belfield Rd at Kipling Ave - Etobicoke North GO Station,,43.704617,-79.563789,,,,,,1
701,5496,Lloyd Manor Rd at Firwood Cres North Side,,43.665826,-79.550934,,,,,,2
702,9808,McCowan Rd Loop at Steeles Ave East,,43.832437,-79.275113,,,,,,2
703,10237,Maybrook Dr at Newmill Gate,,43.825459,-79.261236,,,,,,1
704,3087,Queen St West at Soho St,,43.649465,-79.393288,,,,,,1
706,8215,Steeles Ave East at Don Mills Rd,,43.811361,-79.360551,,,,,,1
707,202,Bathurst St at St Clair Ave West North Side,,43.683539,-79.418312,,,,,,1
708,1745,The Bridle Path at Lawrence Ave East South Side,,43.733072,-79.364553,,,,,,2
710,11251,Midland Ave at Steeles Ave East South Side,,43.825426,-79.297157,,,,,,1
711,4241,Kingston Rd at McNab Blvd East Side,,43.728894,-79.227864,,,,,,1
714,4353,Kipling Ave at Jutland Rd,,43.627059,-79.529279,,,,,,2
717,5891,Oakdale Rd at Sheppard Ave West North Side,,43.737561,-79.524547,,,,,,1
718,11775,Parkside Dr at High Park Blvd,,43.644754,-79.456095,,,,,,2
719,2683,Guildwood Pkwy at Navarre Cres,,43.749505,-79.190293,,,,,,1
720,5688,Midland Ave at Boarhill Dr,,43.799936,-79.284552,,,,,,1
721,2320,Eglinton Ave East at Wynford Dr West Side,,43.724363,-79.325724,,,,,,1
725,3407,Chaplin Cres at Avenue Rd,,43.698727,-79.405846,,,,,,1
726,7691,Ellesmere Rd at Helicon Gate West Side,,43.778605,-79.222594,,,,,,1
727,3648,Glencairn Ave at Danesbury Ave,,43.708267,-79.446835,,,,,,1
729,11166,The Esplanade at Princess St,,43.649601,-79.365268,,,,,,1
730,1867,Davisville Ave at Pailton Cres,,43.699192,-79.392008,,,,,,2
731,3882,Jane St at Dundas St West,,43.665416,-79.490919,,,,,,1
733,2233,Eglinton Ave East at Lebovic Ave East Side,,43.726941,-79.290955,,,,,,1
735,9613,1100 Bellamy Rd North,,43.776198,-79.242397,,,,,,1
736,8630,Wellesley St East at Ontario St,,43.66753,-79.372262,,,,,,1
737,1875,Davisville Ave at Belle Ayre Blvd,,43.700997,-79.383433,,,,,,2
738,915,Danforth Ave at Woodbine Ave,,43.685785,-79.312657,,,,,,1
739,8052,Railside Rd at Codeco Crt East Side,,43.735749,-79.327083,,,,,,1
740,6418,Henrietta St at Runnymede Rd,,43.67061,-79.484457,,,,,,1
741,6158,Waterbury Dr at Martin Grove Rd,,43.687672,-79.569349,,,,,,1
742,8140,St Clair Ave East at Denvale Rd,,43.704594,-79.318304,,,,,,1
743,14263,Birchmount Rd at Ashtonbee Rd,,43.732744,-79.278727,,,,,,1
744,2873,McCowan Rd at Sandhurst Cir (North),,43.811497,-79.268991,,,,,,1
745,9691,Clonmore Dr at Cornell Ave,,43.691478,-79.275328,,,,,,1
746,3052,Queen St East at Jones Ave,,43.662783,-79.332569,,,,,,1
747,1238,Leslie St at Commissioners St,,43.656679,-79.326626,,,,,,1
748,1981,16 The Donway East - Opposite Don Mills Collegiate,,43.736053,-79.340644,,,,,,1
749,8500,Victoria Park Ave at Sloane Ave,,43.738869,-79.308634,,,,,,1
750,5602,1915 Martin Grove Rd,,43.746303,-79.596177,,,,,,1
751,62,Avenue Rd at Dupont St,,43.677274,-79.397763,,,,,,1
753,9237,Shorncliffe Ave at North Queen St,,43.622732,-79.540842,,,,,,1
754,3697,High Park Ave at Glenlake Ave,,43.657034,-79.466644,,,,,,1
755,6202,The Westway at Sun Row Dr East Side,,43.689215,-79.540494,,,,,,1
756,5932,O'Connor Dr at Ralston Ave West Side,,43.698228,-79.327577,,,,,,1
757,8177,St Clair Ave West at Oakwood Ave,,43.679399,-79.435995,,,,,,1
758,2644,Finch Ave West at Woodbine Downs Blvd,,43.733802,-79.606418,,,,,,1
759,2332,Eglinton Ave West at Blackthorn Ave,,43.691842,-79.465459,,,,,,1
760,3244,Yonge St at Shuter St,,43.654147,-79.380123,,,,,,1
761,9341,Dufferin St at Dufferin Park Ave,,43.657218,-79.43441,,,,,,1
763,5544,Maple Leaf Dr at Culford Rd,,43.7122,-79.490392,,,,,,1
764,3959,Keele St at Broadoaks Dr,,43.757271,-79.489263,,,,,,1
765,8896,Wilson Heights Blvd at Codsell Ave,,43.753614,-79.45827,,,,,,1
767,1876,Davisville Ave at Mt Pleasant Rd,,43.700417,-79.38676,,,,,,1
768,7166,Sheppard Ave East at Brownspring Rd,,43.788997,-79.262392,,,,,,1
770,5819,Mt Pleasant Rd at Glengowan Rd,,43.720261,-79.394781,,,,,,1
771,10833,Maybrook Dr at McNicoll Ave North Side,,43.822016,-79.259554,,,,,,1
772,7774,Gentian Dr at Wellesworth Dr,,43.665276,-79.581771,,,,,,1
773,4092,Kennedy Rd at Jade St,,43.781686,-79.28759,,,,,,1
775,3594,Finch Ave West at Grantbrook St West Side,,43.776224,-79.432093,,,,,,1
776,4820,Brimley Rd at Dennett Dr,,43.793232,-79.271211,,,,,,1
779,4557,Queen St East at Coxwell Ave,,43.666193,-79.316789,,,,,,1
780,11549,Finchdene Sq at Torham Pl,,43.819525,-79.233091,,,,,,1
781,38,Annette St at Keele St,,43.663671,-79.46362,,,,,,1
782,6149,Uphill Ave at Church St,,43.708701,-79.508634,,,,,,2
784,4118,Kennedy Rd at Ranstone Gardens,,43.742208,-79.272214,,,,,,2
785,1210,Kennedy Rd at Park St,,43.70938,-79.258513,,,,,,1
786,2725,Islington Ave at Nordin Ave,,43.626838,-79.516246,,,,,,1
787,1371,Neilson Rd at Opp Walkway to Blackwater Cres & Kessack Crt,,43.799867,-79.218453,,,,,,1
788,9245,Shorncliffe Rd at Dundas St West,,43.631979,-79.544419,,,,,,1
789,8112,Sloane Ave at Trophy Dr,,43.728017,-79.310674,,,,,,1
790,6068,Sheppard Ave West at Jane St,,43.739571,-79.512964,,,,,,1
791,14083,Nightstar Rd at Pogonia St,,43.824774,-79.226653,,,,,,1
792,2959,Morningside Ave at Milner Ave,,43.80012,-79.198796,,,,,,1
794,1192,Jones Ave at Queen St East North Side,,43.662925,-79.33282,,,,,,1
795,4987,Dixon Rd at Islington Ave East Side,,43.697104,-79.545978,,,,,,1
796,3674,Greenwood Ave at Dundas St East,,43.667801,-79.326827,,,,,,1
797,2779,Kingston Rd at Glen Manor Dr,,43.679631,-79.294644,,,,,,1
799,937,Davenport Rd at Dufferin St,,43.672861,-79.441114,,,,,,1
800,1126,Gerrard St East at Norwood Rd,,43.683463,-79.302731,,,,,,2
802,3729,Hullmar Dr at Bamford Cres,,43.768505,-79.528912,,,,,,1
804,4077,Kennedy Rd at Dancy Ave North Side,,43.8059,-79.298967,,,,,,1
805,7387,Van Horne Ave at Hobart Dr,,43.787936,-79.349884,,,,,,1
806,2277,Eglinton Ave East at Jonesville Cres East Side,,43.724922,-79.306962,,,,,,1
807,3872,Jane St at Church St,,43.709495,-79.505694,,,,,,1
808,1555,St Clair Ave East at Brimley Rd West Side,,43.720854,-79.241966,,,,,,1
809,10686,St Clair Ave East at Clifton Rd,,43.690041,-79.384484,,,,,,1
810,4623,St Clair Ave East at Danforth Rd,,43.71665,-79.260259,,,,,,1
811,1559,St Clair Ave East at Elfreda Blvd,,43.713659,-79.273123,,,,,,2
812,1562,St Clair Ave East at Kennedy Rd,,43.716364,-79.261557,,,,,,2
813,3122,St Clair Ave East at Victoria Park Ave,,43.708726,-79.296441,,,,,,1
814,8153,St Clair Ave West at Bathurst St,,43.683286,-79.418144,,,,,,1
815,11579,St Clair Ave West at Caledonia Rd East Side,,43.675379,-79.454079,,,,,,1
816,11715,St Clair Ave West at Caledonia Rd,,43.675536,-79.454364,,,,,,1
817,13340,St Clair Ave West at Gunns Rd,,43.671925,-79.470925,,,,,,1
818,11620,St Clair Ave West at Lansdowne Ave,,43.676091,-79.450893,,,,,,1
819,13341,St Clair Ave West at Old Stock Yards Rd,,43.671612,-79.471239,,,,,,1
820,13343,St Clair Ave West at Runnymede Rd,,43.668843,-79.483773,,,,,,1
824,4728,St Dennis Dr at Linkwood Lane,,43.719618,-79.327989,,,,,,1
827,13467,St Basil The Great College School,,43.726797,-79.533957,,,,,,1
828,11413,Steeles Ave East at Birchmount Rd West Side,,43.821303,-79.31785,,,,,,1
829,9346,Steeles Ave East at Birchmount Rd,,43.821204,-79.317134,,,,,,1
831,8216,Steeles Ave East at Dudley Ave,,43.798816,-79.416983,,,,,,1
832,11606,Steeles Ave East at Middlefield Rd,,43.832511,-79.268102,,,,,,1
833,12092,Steeles Ave East at Quail Valley Dr,,43.809405,-79.369115,,,,,,2
834,9344,Steeles Ave East at Warden Ave,,43.819426,-79.324739,,,,,,1
835,8257,1750 Steeles Ave West,,43.785538,-79.478067,,,,,,1
837,1585,Steeles Ave West at Bathurst St East Side,,43.792559,-79.444561,,,,,,1
839,11522,Steeles Ave West at Highway 27 East Side,,43.755518,-79.61325,,,,,,1
840,8285,Steeles Ave West at Islington Ave Loop,,43.764147,-79.576339,,,,,,1
841,12088,Steeles Ave West at Jane St,,43.775231,-79.52209,,,,,,1
842,1590,Steeles Ave West at Keele St East Side,,43.781584,-79.493751,,,,,,1
843,9835,Steeles Ave West at Martin Grove Rd West Side,,43.757726,-79.604437,,,,,,1
844,9825,Steeles Ave West at Martin Grove Rd,,43.757668,-79.603509,,,,,,1
845,1603,Steeles Ave West at Village Gate,,43.793281,-79.441127,,,,,,1
846,8316,Steeles Ave West at Weston Rd,,43.770521,-79.546149,,,,,,1
847,7373,Stephen Dr at The Queensway North Side,,43.630844,-79.484358,,,,,,2
848,11991,Strachan Ave at Fleet St North Side,,43.636606,-79.409631,,,,,,1
849,11992,Strachan Ave at Fleet St,,43.636507,-79.409869,,,,,,1
850,11247,Raab Blvd at Hospital Rd West Side (K & L Wings),,43.722578,-79.376201,,,,,,1
851,11248,Raab Blvd at Hospital Rd West Side (K & L Wings),,43.72264,-79.375956,,,,,,1
852,11996,Wellness Way at Hospital Rd - Odette Cancer Centre,,43.721379,-79.377773,,,,,,1
853,11997,Wellness Way at Hospital Rd - Odette Cancer Centre,,43.721476,-79.377723,,,,,,1
854,1729,Hospital Rd at Wellness Way East Side - Sunnybrook Main Entrance,,43.72178,-79.376853,,,,,,1
855,9394,Hospital Rd at Wellness Way East Side - Sunnybrook Main Entrance,,43.72182,-79.376728,,,,,,1
856,9911,Tapscott Rd at Finch Ave East North Side,,43.814645,-79.237169,,,,,,1
857,11878,Transit Rd at Wilson Ave North Side,,43.734708,-79.45215,,,,,,1
858,11879,Transit Rd at Wilson Ave,,43.734385,-79.452674,,,,,,2
860,4678,Tuscan Gate at St Regis Cres (South),,43.75434,-79.483884,,,,,,1
867,8418,Vaughan Rd at Maplewood Ave,,43.685654,-79.421833,,,,,,1
868,8442,Victoria Park Ave at Craigton Dr,,43.726546,-79.303276,,,,,,1
869,8477,Victoria Park Ave at Lawrence Ave East South Side,,43.741562,-79.309752,,,,,,1
871,7424,Victoria Park Ave at Sheppard Ave East North Side,,43.775785,-79.323069,,,,,,1
872,7425,Victoria Park Ave at Sheppard Ave East South Side,,43.774647,-79.322908,,,,,,1
873,9905,Warden Ave at Danforth Rd South Side,,43.696469,-79.274634,,,,,,1
874,12013,Warden Ave at Sheppard Ave East North Side,,43.779426,-79.308122,,,,,,1
875,10536,Warden Ave at Steeles Ave East North Side,,43.820301,-79.32448,,,,,,1
876,10565,Warden Ave at Steeles Ave East South Side,,43.818977,-79.324472,,,,,,1
877,4710,Wellington St West at Bay St,,43.647469,-79.37946,,,,,,2
880,1633,The West Mall at Sherway Dr - Trillium Health Centre (South Stop),,43.609464,-79.560579,,,,,,1
881,11119,The West Mall at The Queensway South Side,,43.61175,-79.562334,,,,,,1
882,8762,Weston Rd at Rogers Rd South Side,,43.681288,-79.4766,,,,,,1
883,8698,Weston Rd at Bradstock Rd,,43.738874,-79.539217,,,,,,1
884,9677,Weston Rd at Eglinton Ave West South Side,,43.686654,-79.489128,,,,,,1
885,8723,Weston Rd at Finch Ave West,,43.75179,-79.542165,,,,,,2
886,7443,Weston Rd at Oak St North Side,,43.708152,-79.533625,,,,,,1
887,4713,Weston Rd at Rogers Rd North Side,,43.682026,-79.477086,,,,,,1
889,13536,Wheeltrans Exit at Commissioners St,,43.654958,-79.330348,,,,,,2
890,6210,Wicksteed Ave at Laird Dr,,43.710477,-79.363323,,,,,,1
891,9899,Wilson Ave at Billy Bishop Way,,43.733156,-79.452938,,,,,,1
892,8867,Wilson Ave at Keele St East Side,,43.726932,-79.481019,,,,,,1
893,8869,Wilson Ave at Keele St,,43.726925,-79.481737,,,,,,1
894,1662,Wilson Ave at Lady York Ave,,43.731006,-79.464577,,,,,,1
895,13470,Opposite 675 Wilson Ave,,43.733006,-79.455114,,,,,,1
896,1666,Wilson Ave at Transit Rd West Side,,43.733336,-79.453577,,,,,,1
900,9013,5800 Yonge St,,43.784107,-79.416819,,,,,,1
902,3225,Yonge St at Front St East North Side,,43.647377,-79.377049,,,,,,1
903,13455,Yonge St at Front St East,,43.646768,-79.376766,,,,,,2
904,9002,Yonge St at Heath St East,,43.689912,-79.394726,,,,,,1
905,9003,Yonge St at Hendon Ave,,43.781711,-79.416193,,,,,,1
909,11371,Yonge St at Wilson Ave South Side,,43.743514,-79.406769,,,,,,2
910,11394,Yonge St at York Mills Rd,,43.743783,-79.406435,,,,,,1
916,9078,York Mills Rd at Lesmill Rd West Side,,43.754734,-79.352534,,,,,,1
917,9083,York Mills Rd at Sandover Dr (1222 York Mills),,43.759813,-79.331751,,,,,,1
918,9907,York Mills Rd at Yonge St East Side,,43.744162,-79.405826,,,,,,1
919,9906,York Mills Rd at Yonge St,,43.744417,-79.405968,,,,,,1
920,3264,York Mills Rd at York Ridge Rd,,43.744189,-79.401756,,,,,,1
921,4736,York St at King St West,,43.647822,-79.383403,,,,,,2
924,597,Bloor St West at Wilmar Rd,,43.639615,-79.544571,,,,,,2
925,7361,St Clair Ave West at Cobalt Ave,,43.670097,-79.478134,,,,,,1
926,5564,Markham Rd at Greencrest Circt North Side,,43.758172,-79.224634,,,,,,1
928,13311,Scarlett Rd at Bernice Cres,,43.666777,-79.499347,,,,,,1
929,8256,Steeles Ave East at Opposite Walkway to Whitman St,,43.80052,-79.409206,,,,,,1
930,8091,Sentinel Rd at Murray Ross Pkwy South Side,,43.764335,-79.501308,,,,,,1
931,11164,Berkeley St at Front St East South Side,,43.650874,-79.36392,,,,,,1
932,13706,Vanderhoof Ave at Thomas Elgie Dr,,43.713375,-79.356289,,,,,,2
933,2913,Midland Ave at Danforth Rd,,43.724981,-79.254164,,,,,,1
934,2407,Eglinton Ave West at Scarlett Rd,,43.6841,-79.511249,,,,,,1
935,867,Crow Trail at Baldoon Rd,,43.813546,-79.231021,,,,,,1
936,8585,Warden Ave at Lupin Dr,,43.765659,-79.302328,,,,,,2
937,2987,Overlea Blvd at William Morgan Dr,,43.707837,-79.341551,,,,,,1
939,1193,Jones Ave at Queen St East,,43.663137,-79.333046,,,,,,1
940,564,Bloor St West at Palmerston Ave,,43.66468,-79.413525,,,,,,1
941,8865,Wilson Ave at Julian Rd East Side - Humber River Hospital,,43.724582,-79.490689,,,,,,1
942,13307,St Clair Ave West at Mariposa Ave,,43.667688,-79.489614,,,,,,1
943,8260,Steeles Ave West at Scholes Rd/Barmac Dr,,43.768372,-79.555194,,,,,,1
944,9077,York Mills Rd at Leslie St West Side,,43.753001,-79.360766,,,,,,1
945,4186,King St West at Spencer Ave,,43.638134,-79.430997,,,,,,2
946,6756,Pharmacy Ave at Sundridge Dr North Side,,43.72129,-79.295687,,,,,,1
947,12838,Vanderhoof Ave at Brentcliffe Rd,,43.713117,-79.358159,,,,,,1
950,4607,Spadina Rd at Ardmore Rd,,43.695334,-79.415549,,,,,,2
951,11102,Orton Park Rd at Lisa Rd,,43.766455,-79.206759,,,,,,1
952,9247,Thirtieth St at Horner Ave South Side,,43.603747,-79.533562,,,,,,1
953,8212,Steeles Ave East at Bestview Dr East Side,,43.806055,-79.382961,,,,,,1
954,4190,King St West at Tecumseth St,,43.643488,-79.405049,,,,,,2
955,2054,Dufferin St at Glencairn Ave,,43.707138,-79.453371,,,,,,1
956,483,Bloor St East at Parliament St,,43.672194,-79.370653,,,,,,2
957,8886,Wilson Ave at Wendell Ave,,43.716636,-79.527232,,,,,,2
958,5264,Lawrence Ave East at Fortune Gate East Side,,43.760842,-79.219824,,,,,,1
960,12203,Lawrence West Station,,43.716218,-79.444374,,,,,,1
961,4390,Kipling Ave at Widdicombe Hill Blvd,,43.679027,-79.551874,,,,,,1
962,4836,Brimley Rd at Walkway to McCool Crt,,43.818488,-79.283192,,,,,,1
963,1115,Gerrard St East at Bowmore Rd,,43.677874,-79.315075,,,,,,2
964,6438,Huntingwood Dr at Davisbrook Blvd,,43.786128,-79.308503,,,,,,1
965,5771,Mortimer Ave at Coxwell Ave - Michael Garron Hospital,,43.690445,-79.326727,,,,,,1
966,1412,O'Connor Dr at Don Mills Rd West Side,,43.695546,-79.340081,,,,,,1
967,2113,Duncan Mill Rd at Valleybrook Dr,,43.761912,-79.353465,,,,,,1
968,2815,Lawrence Ave East at Leslie St West Side,,43.734608,-79.356821,,,,,,1
970,8892,Wilson Ave at Yonge St,,43.743804,-79.407263,,,,,,1
971,1099,Gerrard St East at Marjory Ave,,43.668855,-79.337448,,,,,,2
972,2469,Faywood Blvd at Goodwill Ave,,43.736941,-79.446836,,,,,,1
975,3995,Keele St at Four Winds Dr,,43.765884,-79.491793,,,,,,1
976,12135,Eglinton Ave West at Royal York Rd East Side,,43.682279,-79.526015,,,,,,1
977,15,Anglesey Blvd at Pinehurst Cres North Side,,43.663562,-79.524999,,,,,,1
978,4738,York Gate Blvd at Jane St,,43.761781,-79.519077,,,,,,1
979,1001,Dupont St at Christie St,,43.671704,-79.421375,,,,,,1
980,707,Opposite 724 Caledonia Rd,,43.699908,-79.463748,,,,,,1
981,6064,Sheppard Ave West at Northwood Park,,43.742758,-79.496344,,,,,,2
984,7818,Harbord St at Spadina Ave,,43.663187,-79.401875,,,,,,1
986,12198,South Service Rd at Transway Cres,,43.732636,-79.264907,,,,,,2
987,4571,Roncesvalles Ave at Fermanagh Ave,,43.646167,-79.448917,,,,,,2
989,7264,Sheppard Ave West at Bathurst St East Side,,43.755396,-79.437829,,,,,,1
990,8364,Thorncliffe Park Dr East at Overlea Blvd,,43.707719,-79.3438,,,,,,1
991,6728,Pharmacy Ave at Eglinton Sq (East Entrance),,43.72414,-79.297118,,,,,,2
992,9293,Drewry Ave at Yonge St,,43.786892,-79.418072,,,,,,1
993,11196,Attwell Dr at McLachlan Dr North Side,,43.693563,-79.588478,,,,,,1
994,5675,McCowan Rd at Meldazy Dr (North),,43.763591,-79.248343,,,,,,1
995,14246,Warden Ave at Cachet Pkwy (South),,43.888387,-79.342154,,,,,,2
996,7735,Elmhurst Dr at Muncey Ave,,43.724516,-79.553251,,,,,,1
997,6693,Pharmacy Ave at Dolphin Dr North Side,,43.700332,-79.286721,,,,,,1
999,4266,Kingston Rd at Victoria Park Ave,,43.6809,-79.283931,,,,,,1
1000,9992,361 The West Mall,,43.640811,-79.565235,,,,,,1
1001,6976,Royal York Rd at Bloor St West,,43.647184,-79.511128,,,,,,1
1002,7198,Sheppard Ave East at Kingston Rd North Side,,43.799459,-79.146775,,,,,,1
1003,7011,Royal York Rd at Melrose St,,43.6198,-79.499772,,,,,,1
1004,1367,125 Milner Ave,,43.785255,-79.246078,,,,,,1
1005,6541,Marlee Ave at Glencairn Ave,,43.708904,-79.443657,,,,,,1
1006,10013,McCowan Rd at Denison St,,43.841646,-79.278162,,,,,,1
1007,1943,Don Mills Rd at Havenbrook Blvd,,43.769772,-79.346695,,,,,,1
1008,10546,Warden Ave at Carlton Rd,,43.867355,-79.336749,,,,,,1
1009,8012,Overlea Blvd at Thorncliffe Park Dr (West),,43.705197,-79.349856,,,,,,1
1010,843,College St at Spadina Ave,,43.657863,-79.400435,,,,,,2
1011,6600,Middlefield Rd at Walkway to Buckhurst Cres,,43.805348,-79.254808,,,,,,1
1013,4308,Kipling Ave at Evans Ave,,43.616013,-79.524922,,,,,,1
1015,6569,Meadowvale Rd at Generation Blvd,,43.804115,-79.168529,,,,,,1
1016,752,Carlton St at Church St,,43.661975,-79.37919,,,,,,2
1018,11258,Sheppard Ave East at Scunthorpe Rd West Side,,43.793243,-79.24221,,,,,,1
1019,200,Bathurst St at Sheppard Ave West,,43.755643,-79.438674,,,,,,1
1021,3931,Jane St at Stong Crt,,43.761793,-79.518618,,,,,,1
1022,5460,Leslie St at McNicoll Ave,,43.801224,-79.370502,,,,,,1
1023,3794,Islington Ave at Fletcher Place,,43.691428,-79.544286,,,,,,2
1024,11370,Progress Ave at Brimley Rd West Side,,43.775221,-79.263934,,,,,,1
1025,3659,Glencairn Ave at Haven Rd,,43.706214,-79.458107,,,,,,2
1027,4355,Kipling Ave at Penlea Ave,,43.740301,-79.58042,,,,,,1
1028,8837,Wilson Ave at Avenue Rd,,43.7397,-79.421902,,,,,,1
1029,7404,Varna Dr at Lawrence Ave West North Side,,43.718066,-79.437792,,,,,,1
1030,4265,Kingston Rd at Victoria Park Ave,,43.680713,-79.284309,,,,,,2
1031,13371,Queens Quay West at Bathurst St East Side Billy Bishop Airport,,43.636048,-79.397767,,,,,,1
1032,8122,Spadina Rd at Dupont St - Dupont Station,,43.675002,-79.407221,,,,,,1
1033,2471,Faywood Blvd at Invermay Ave,,43.73878,-79.447227,,,,,,1
1034,10148,Brimley Rd at Pitfield Rd,,43.783587,-79.266568,,,,,,1
1035,3331,Belfield Rd at City View Dr,,43.699693,-79.58563,,,,,,1
1036,7981,Millwood Rd at Southvale Dr,,43.702461,-79.361822,,,,,,1
1037,7575,Carlingview Dr at Disco Rd South Side,,43.699305,-79.601374,,,,,,1
1038,9743,Barber Greene Rd at Broadpath Rd West Side,,43.729763,-79.349132,,,,,,1
1039,827,College St at Dufferin St,,43.652635,-79.432423,,,,,,2
1040,298,2395 Bayview Ave - Bob Rumball Centre For The Deaf,,43.733948,-79.381269,,,,,,2
1041,11573,Thistle Down Blvd at Bentwick Cres (East),,43.737811,-79.556739,,,,,,1
1042,877,Danforth Ave at Carlaw Ave,,43.678557,-79.347166,,,,,,1
1043,410,Birchmount Rd at Ferguson Gate,,43.829894,-79.317913,,,,,,1
1044,10624,North Queen St at Index Rd,,43.619294,-79.554263,,,,,,1
1045,4546,Progress Ave at Cosentino Dr,,43.773435,-79.270315,,,,,,1
1046,2969,Morningside Ave at Tefft Rd,,43.772819,-79.18794,,,,,,1
1047,7390,Van Horne Ave at Houston Cres (West),,43.787625,-79.347637,,,,,,1
1048,3827,Islington Ave at Princess Margaret Blvd South Side,,43.675429,-79.537136,,,,,,2
1049,1936,Don Mills Rd at Gateway Blvd (South) North Side,,43.710963,-79.33466,,,,,,1
1050,6378,Grantbrook St at Finch Ave West North Side,,43.776728,-79.431788,,,,,,1
1052,1158,Hullmar Dr at Peter Kaiser Gate,,43.773259,-79.525938,,,,,,1
1053,10130,Park Lawn Rd at Lake Shore Blvd West,,43.622987,-79.481651,,,,,,1
1054,5210,Lansdowne Ave at Bloor St West,,43.658219,-79.442624,,,,,,1
1055,9776,Duncan Mill Rd at Don Mills Rd West Side,,43.761806,-79.347777,,,,,,1
1056,5014,Dundas St West at East Mall Cres West Side,,43.630229,-79.551376,,,,,,1
1057,6752,Pharmacy Ave at Stamford Sq,,43.712033,-79.291977,,,,,,1
1058,4883,Church St at Rosemount Ave,,43.705045,-79.52125,,,,,,2
1059,9449,Donlands Ave at Elmsdale Rd,,43.695797,-79.344719,,,,,,1
1060,12122,Kipling Ave at Lake Shore Blvd West,,43.598061,-79.516776,,,,,,1
1061,2127,Dundas St East at River St,,43.661284,-79.358,,,,,,2
1062,5709,Midland Ave at Huntingwood Dr,,43.797197,-79.283686,,,,,,1
1063,2160,Dundas St West at Dufferin St,,43.649587,-79.431565,,,,,,2
1064,2689,Guildwood Pkwy at Scarcliff Gardens,,43.751101,-79.183093,,,,,,2
1065,8533,Warden Ave at Bamburgh Cir (South),,43.811524,-79.323201,,,,,,1
1067,7805,Harbord St at Brunswick Ave,,43.662347,-79.405879,,,,,,1
1068,187,Bathurst St at Queen St West,,43.647375,-79.404131,,,,,,2
1069,8779,1765 Weston Rd,,43.698774,-79.512257,,,,,,2
1070,3039,Queen St East at Carroll St,,43.658422,-79.352103,,,,,,1
1072,458,Birchmount Rd at Walkway to River Grove Dr,,43.818466,-79.315655,,,,,,1
1073,5164,Lake Shore Blvd West at Thirty Seventh St,,43.593334,-79.538348,,,,,,1
1074,11541,John Garland Blvd at Jamestown Cres (East),,43.734189,-79.582493,,,,,,1
1076,2963,Morningside Ave at Morningside Park,,43.780477,-79.191414,,,,,,1
1077,1399,Neilson Rd at Sewells Rd,,43.806417,-79.218347,,,,,,1
1078,11518,Royalcrest Rd at Martin Grove Rd West Side,,43.752207,-79.599953,,,,,,1
1079,7013,Royal York Rd at Mimico Ave,,43.612353,-79.496884,,,,,,2
1080,2914,Midland Ave at Park St,,43.712145,-79.248704,,,,,,1
1082,1318,McCowan Rd at Sheppard Ave East,,43.789787,-79.259086,,,,,,1
1083,7974,Military Trail at Lash Crt,,43.783478,-79.181795,,,,,,2
1084,8066,Renforth Dr at Convair Dr,,43.672064,-79.59309,,,,,,1
1085,8563,Warden Ave at Fairfax Cres,,43.716096,-79.282539,,,,,,1
1086,6214,Wineva Ave at Williamson Rd South Side,,43.673681,-79.296945,,,,,,2
1087,12022,McNicoll Ave at Hutchcroft Ave East Side,,43.816842,-79.276515,,,,,,2
1089,421,1360 Birchmount Rd,,43.749748,-79.285884,,,,,,2
1090,5301,Lawrence Ave East at Overture Rd West Side,,43.765491,-79.199864,,,,,,1
1091,8083,Sentinel Rd at Fountainhead Rd,,43.762568,-79.500745,,,,,,1
1092,10603,Finch Ave East at Walkway to Chester Le Blvd,,43.79396,-79.328039,,,,,,1
1094,7265,Sheppard Ave West at Bathurst St,,43.7556,-79.437993,,,,,,1
1096,3262,York Mills Rd at Highland Cres,,43.745354,-79.396532,,,,,,1
1097,9649,170 Nugget Ave,,43.794964,-79.253399,,,,,,1
1098,208,Bathurst St at Steeles Ave West,,43.792653,-79.445965,,,,,,1
1099,6084,Sheppard Ave West at Oakdale Rd,,43.736741,-79.523996,,,,,,1
1100,8975,Yonge St at Cummer Ave,,43.786938,-79.41714,,,,,,1
1101,5651,Martin Grove Rd at Vulcan St South Side,,43.70461,-79.576985,,,,,,1
1102,10558,Warden Ave at Enterprise Blvd,,43.848684,-79.332174,,,,,,1
1103,9894,Mountcastle Gate at Steeles Ave East,,43.820299,-79.320232,,,,,,1
1104,1049,Ellesmere Rd at Markham Rd,,43.776669,-79.231287,,,,,,2
1105,7215,Sheppard Ave East at Maris Shepway,,43.772118,-79.361499,,,,,,1
1107,8579,Warden Ave at Kingston Rd North Side,,43.688193,-79.27104,,,,,,1
1108,5217,Lansdowne Ave at Paton Rd,,43.660848,-79.443775,,,,,,1
1109,4793,Avenue Rd at Roselawn Ave South Side,,43.708388,-79.410473,,,,,,1
1111,6845,Queen St West at O'Hara Ave,,43.641174,-79.434064,,,,,,1
1112,7075,Scarlett Rd at Alma Dr,,43.692744,-79.517763,,,,,,2
1113,6010,Rathburn Rd at Kipling Ave West Side,,43.659829,-79.54369,,,,,,1
1115,4569,Roncesvalles Ave at Boustead Ave South Side,,43.653079,-79.45167,,,,,,2
1116,3920,Jane St at Sheppard Ave West,,43.739207,-79.512947,,,,,,1
1118,9132,Finch Ave West at Yonge St - Finch Station,,43.779444,-79.416584,,,,,,1
1119,5402,Lawrence Ave West at Royal York Rd East Side,,43.69618,-79.532182,,,,,,1
1120,5853,151 Norfinch Dr,,43.764794,-79.529897,,,,,,1
1121,361,Bellamy Rd North at Lawrence Ave East,,43.75758,-79.235067,,,,,,1
1122,3950,Judson St at Magnificent Rd,,43.612785,-79.512331,,,,,,1
1123,1103,Gerrard St East at Prust Ave,,43.670451,-79.330316,,,,,,2
1124,1404,Neilson Rd at Tapscott Rd,,43.806674,-79.218959,,,,,,1
1125,5389,Lawrence Ave West at Marlee Ave,,43.715432,-79.446757,,,,,,1
1126,3889,Jane St at Falstaff Ave,,43.715125,-79.506944,,,,,,1
1127,9226,Sentinel Rd at Stilecroft Dr (North),,43.750572,-79.494337,,,,,,1
1129,1787,Coxwell Ave at Dundas St East,,43.668538,-79.317395,,,,,,1
1130,6556,Marlee Ave at Wenderly Dr South Side,,43.713142,-79.44558,,,,,,1
1131,13655,9350 Markham Rd,,43.894003,-79.264674,,,,,,1
1132,6063,Sheppard Ave West at Buckland Rd,,43.741224,-79.50321,,,,,,1
1133,9215,Arleta Ave at Grandravine Dr,,43.747969,-79.507845,,,,,,1
1134,5142,Laird Dr at Kenrae Rd,,43.704608,-79.361289,,,,,,1
1135,4667,98 Toryork Dr,,43.755799,-79.549298,,,,,,2
1136,3911,Jane St at Milo Park Gate,,43.765957,-79.519824,,,,,,1
1138,7349,Spadina Ave at Dundas St West North Side,,43.653388,-79.398172,,,,,,1
1139,8727,Weston Rd at Gaydon Ave,,43.720275,-79.537346,,,,,,1
1140,529,Bloor St West at Jane St,,43.649446,-79.484271,,,,,,1
1141,475,Bloor St West at Runnymede Rd,,43.651237,-79.476129,,,,,,1
1142,5260,Lawrence Ave East at The Donway East,,43.737804,-79.340749,,,,,,1
1143,81,Bathurst St at Allingham Gardens South Side,,43.739895,-79.434758,,,,,,1
1144,514,Bloor St West at Clendenan Ave,,43.652613,-79.469857,,,,,,1
1145,1898,Dawes Rd at Park Vista,,43.697875,-79.296925,,,,,,2
1146,13325,Morningview Trail at Old Finch Ave South Side,,43.821706,-79.201763,,,,,,1
1149,1882,Davisville Ave at Yonge St East Side,,43.69832,-79.396197,,,,,,1
1150,10304,Dovercourt Rd at Hallam St,,43.667087,-79.431564,,,,,,1
1151,6776,Prince Edward Dr South at Glenaden Ave East,,43.642845,-79.502871,,,,,,1
1153,8327,Sutherland Dr at Bessborough Dr,,43.699165,-79.370248,,,,,,1
1154,8719,Weston Rd at Eglinton Ave West,,43.687159,-79.490142,,,,,,1
1155,9827,Pharmacy Ave at Ellesmere Rd South Side,,43.758635,-79.310162,,,,,,1
1156,6656,Peckham Ave at Pleasant Ave South Side,,43.788704,-79.43586,,,,,,2
1157,16,Anglesey Blvd at Royal York Rd West Side,,43.665864,-79.52024,,,,,,1
1158,3641,Glencairn Ave at Bathurst St,,43.712197,-79.428372,,,,,,1
1159,4142,King St East at River St,,43.657079,-79.35597,,,,,,2
1160,9880,Keele St at Victory Dr,,43.728712,-79.482637,,,,,,1
1161,11304,Sewells Rd at Empringham Dr,,43.812259,-79.214044,,,,,,1
1162,11537,John Garland Blvd at Jamestown Cres (East) East Side,,43.734095,-79.582325,,,,,,1
1163,1938,Don Mills Rd at Godstone Rd,,43.782682,-79.348922,,,,,,1
1164,220,Bathurst St at Southbourne Ave,,43.738382,-79.434132,,,,,,1
1165,5436,Leslie St at Denlow Blvd,,43.746129,-79.358658,,,,,,1
1166,9355,Steeles Ave East at Birchmount Rd,,43.821577,-79.316703,,,,,,1
1167,8890,Wilson Ave at Yonge Blvd,,43.741435,-79.415154,,,,,,1
1168,8577,Warden Ave at Ionson Blvd,,43.690676,-79.27205,,,,,,2
1169,3789,Islington Ave at Fairway Rd,,43.654968,-79.52804,,,,,,1
1170,6059,Sheppard Ave West at Arrow Rd West Side,,43.735717,-79.529808,,,,,,1
1171,1659,Wilson Ave at Faywood Blvd,,43.734883,-79.446263,,,,,,1
1172,5974,Ossington Ave at Hepbourne St,,43.659829,-79.424863,,,,,,1
1173,10845,Ironside Cres at McNicoll Ave North Side,,43.82473,-79.246129,,,,,,1
1174,8499,Victoria Park Ave at Sloane Ave,,43.738523,-79.308202,,,,,,1
1175,2897,McNicoll Ave at Myers Lane,,43.802859,-79.368176,,,,,,1
1176,7246,Sheppard Ave East at Shaughnessy Blvd,,43.773531,-79.353473,,,,,,1
1177,3835,Islington Ave at Rowntree Mill Rd South Side,,43.754366,-79.568921,,,,,,1
1178,4881,Church St at Pine St,,43.707929,-79.511079,,,,,,2
1179,4064,1420 Kennedy Rd,,43.763626,-79.280569,,,,,,1
1180,6552,Marlee Ave at Stayner Ave,,43.705048,-79.4421,,,,,,2
1181,7883,Keele St at Annette St,,43.663862,-79.464024,,,,,,1
1182,6679,3200 Pharmacy Ave,,43.799855,-79.328906,,,,,,1
1183,10150,Brimley Rd at Progress Ave,,43.775499,-79.26342,,,,,,1
1184,1174,Jane St at Weatherell St South Side,,43.65138,-79.485422,,,,,,1
1185,6723,Pharmacy Ave at Lawrence Ave East,,43.743443,-79.304881,,,,,,1
1186,8882,Wilson Ave at Ridley Blvd,,43.73928,-79.423844,,,,,,1
1187,2753,Kennedy Rd at Eglinton Ave South Side,,43.731845,-79.267992,,,,,,1
1188,8525,Walsh Ave at Weston Rd East Side,,43.716734,-79.536796,,,,,,1
1189,3049,Queen St East at Greenwood Ave,,43.664452,-79.325179,,,,,,1
1190,4205,Kingston Rd at Birchcliff Ave,,43.691339,-79.264814,,,,,,1
1191,9184,Norfinch Dr at Steeles Ave West South Side,,43.772811,-79.531686,,,,,,1
1192,9283,Opposite 100 Antibes Dr,,43.779568,-79.446995,,,,,,1
1194,8468,Victoria Park Ave at Hare Gate,,43.796089,-79.332897,,,,,,1
1195,988,Dundas St West at Sorauren Ave,,43.651198,-79.445012,,,,,,2
1196,6021,Rogers Rd at Dufferin St,,43.685645,-79.445975,,,,,,1
1197,3003,Pape Ave at Rivercourt Blvd,,43.696523,-79.349602,,,,,,1
1198,6634,Parliament St at Carlton St,,43.664361,-79.368101,,,,,,1
1199,5352,Lawrence Ave West at Chatsworth Dr,,43.723084,-79.41138,,,,,,1
1200,8722,Weston Rd at Finch Ave West South Side,,43.751644,-79.542439,,,,,,1
1201,1118,Gerrard St East at Glenmount Park Rd,,43.682547,-79.306185,,,,,,2
1204,8583,Warden Ave at Lowcrest Blvd,,43.775486,-79.306523,,,,,,1
1205,8845,Wilson Ave at Clayson Rd,,43.717475,-79.523537,,,,,,1
1207,13704,Lawrence Ave East at Fern Meadow Rd,,43.771784,-79.171597,,,,,,1
1209,1819,Cummer Ave at Silverview Dr,,43.787944,-79.413388,,,,,,1
1211,5855,250 Norfinch Dr,,43.768306,-79.531472,,,,,,1
1212,2190,Dundas St West at Spadina Ave,,43.653064,-79.397708,,,,,,2
1214,5697,Midland Ave at Eglinton Ave East,,43.734723,-79.258371,,,,,,1
1215,3504,Dundas St West at Islington Ave,,43.65187,-79.526097,,,,,,1
1217,4853,Carlaw Ave at Commissioners St North Side,,43.652946,-79.335648,,,,,,1
1218,316,Bayview Ave at Ruth Ave,,43.794226,-79.394137,,,,,,1
1219,10138,Steeles Ave East at Ferrier St,,43.818633,-79.32951,,,,,,1
1220,10797,Yonge St at Merton St North Side,,43.696475,-79.396114,,,,,,1
1221,6639,Parliament St at King St East,,43.652654,-79.363075,,,,,,1
1222,4568,Roncesvalles Ave at Boustead Ave North Side,,43.653173,-79.451549,,,,,,2
1223,7814,Harbord St at Ossington Ave,,43.65868,-79.42399,,,,,,1
1224,7350,Spadina Rd at Dupont St - Dupont Station,,43.67473,-79.406924,,,,,,1
1226,5869,166 Norfinch Dr,,43.766382,-79.530575,,,,,,1
1227,5200,Opposite 2111 Lake Shore Blvd West,,43.628942,-79.478392,,,,,,1
1229,3684,Greenwood Ave at Queen St East North Side,,43.66471,-79.325335,,,,,,1
1231,2603,1150 Finch Ave West,,43.765283,-79.483642,,,,,,1
1232,3273,Albion Rd at Humberline Dr East Side,,43.746664,-79.621491,,,,,,1
1233,5160,Lake Shore Blvd West at Twenty Eighth St,,43.595685,-79.527699,,,,,,1
1234,4936,1290 Danforth Rd,,43.740746,-79.245627,,,,,,1
1235,5850,100 Norfinch Dr,,43.759548,-79.529001,,,,,,1
1238,1307,McCowan Rd at Middlefield Rd,,43.798532,-79.262287,,,,,,1
1239,170,Bathurst St at Lyonsgate Dr,,43.742895,-79.435483,,,,,,1
1240,8657,Westhumber Blvd at Martin Grove Rd East Side,,43.726064,-79.58615,,,,,,1
1241,7149,Sheppard Ave East at Bay Mills Blvd,,43.77973,-79.304265,,,,,,1
1242,2390,Eglinton Ave West at Old Forest Hill Rd East Side,,43.701517,-79.422636,,,,,,1
1243,9352,Steeles Ave East at Kennedy Rd West Side,,43.823608,-79.308043,,,,,,1
1244,9572,McLevin Ave at Greenspire Rd,,43.802912,-79.232596,,,,,,1
1245,352,Bellamy Rd North at Eglinton Ave East North Side - Eglinton GO Station,,43.740751,-79.232066,,,,,,1
1247,8411,Vaughan Rd at Humewood Dr,,43.688858,-79.428144,,,,,,1
1248,8302,Steeles Ave West at Rossdean Dr,,43.77169,-79.54045,,,,,,1
1249,779,Christie St at Yarmouth Rd South Side,,43.669768,-79.420884,,,,,,1
1250,3809,Islington Ave at The Kingsway,,43.668502,-79.534002,,,,,,1
1251,13656,Markham Rd at 16Th Ave,,43.892174,-79.264278,,,,,,2
1252,5592,1051 Martin Grove Rd @ Highway 409,,43.700427,-79.574786,,,,,,1
1253,8397,Upper Canada Dr at Normandale Cres (West),,43.756569,-79.401326,,,,,,1
1254,9501,Morningside Ave at Halfway Ave,,43.81788,-79.213959,,,,,,1
1255,6082,Sheppard Ave West at Min Ave,,43.740159,-79.507007,,,,,,1
1257,9166,Leslie St at Sheppard Ave East,,43.771985,-79.364326,,,,,,1
1258,5151,Lake Shore Blvd West at Tenth St,,43.600155,-79.508496,,,,,,1
1259,11071,McNicoll Ave at Morbank Dr,,43.80906,-79.308999,,,,,,2
1260,6810,Queen St East at Sarah Ashbridge Ave,,43.667893,-79.309305,,,,,,1
1262,133,Bathurst St at Ellerslie Ave North Side,,43.765906,-79.440833,,,,,,1
1263,6632,Parliament St at Adelaide St East,,43.653617,-79.363704,,,,,,1
1264,7587,Carlingview Dr at Worcester Rd South Side,,43.693235,-79.598612,,,,,,1
1265,1018,1245 Dupont St,,43.668187,-79.441213,,,,,,2
1266,11494,Yonge St at Elmwood Ave,,43.766466,-79.412017,,,,,,1
1267,6134,St Clair Ave East at Maybourne Ave,,43.709324,-79.29384,,,,,,1
1268,1123,Gerrard St East at Kingsmount Park Rd,,43.67986,-79.312662,,,,,,2
1269,2615,Finch Ave West at Kiskadee Dr,,43.735161,-79.598247,,,,,,1
1270,174,Bathurst St at Mcallister Rd North Side,,43.753514,-79.437841,,,,,,1
1271,12926,700 Arrow Rd,,43.745714,-79.529601,,,,,,1
1272,7326,Sherbourne St at Maple Ave,,43.674816,-79.377618,,,,,,2
1273,2542,636 Finch Ave East (Plaza),,43.787631,-79.380817,,,,,,1
1274,7632,Curity Ave at Cranfield Rd,,43.709237,-79.31405,,,,,,1
1275,7987,Moore Ave at Lumley Ave,,43.695729,-79.376458,,,,,,1
1277,7889,Keele St at Glenlake Ave,,43.658499,-79.461695,,,,,,1
1278,2079,Dufferin St at Preston Rd South Side,,43.690529,-79.448215,,,,,,1
1279,9291,Drewry Ave at Fairchild Ave,,43.786064,-79.421807,,,,,,1
1280,1985,The Donway East at Wingreen Crt South Side,,43.738988,-79.341436,,,,,,1
1281,2282,Eglinton Ave East at Kingston Rd West Side,,43.744079,-79.212339,,,,,,1
1282,855,80 Cosburn Ave,,43.689059,-79.350949,,,,,,1
1283,9455,Cosburn Ave at Glebemount Ave,,43.695413,-79.321719,,,,,,1
1284,8145,St Clair Ave East at Welland Ave,,43.691076,-79.379718,,,,,,1
1285,9101,44 Kodiak Cres,,43.754887,-79.468067,,,,,,1
1286,771,Christie St at Dupont St,,43.67175,-79.421688,,,,,,1
1287,7407,Varna Dr at Ranee Ave South Side,,43.723511,-79.445524,,,,,,1
1288,7356,Spadina Ave at Sullivan St North Side,,43.651288,-79.397326,,,,,,1
1289,4099,Kennedy Rd at Lovering Rd,,43.799183,-79.295366,,,,,,1
1291,510,Bloor St West at The East Mall,,43.636748,-79.556812,,,,,,1
1292,3677,Greenwood Ave at Gerrard St East,,43.670755,-79.327828,,,,,,1
1293,2702,Humberline Dr at Claireville Dr (North),,43.746109,-79.622079,,,,,,1
1294,10767,Dovercourt Rd at Hallam St,,43.667286,-79.431828,,,,,,1
1295,9507,Gateway Blvd at Sunny Glenway (West),,43.710587,-79.331417,,,,,,1
1296,13367,Queens Quay West at Dan Leckie Way West Side,,43.636492,-79.397299,,,,,,1
1297,14275,Opposite 2900 Warden Ave - Bridlewood Mall,,43.799101,-79.316801,,,,,,1
1298,5868,Norfinch Dr at Walkway to Shoreham Dr,,43.766445,-79.530388,,,,,,1
1299,5191,Lake Shore Blvd West at Miles Rd,,43.607993,-79.490263,,,,,,1
1300,3064,Queen St East at Parliament St,,43.655473,-79.364679,,,,,,1
1301,3066,Queen St East at River St,,43.657255,-79.356674,,,,,,2
1302,8704,Weston Rd at Church St,,43.702978,-79.525105,,,,,,1
1303,7504,Pleasant Blvd at Avoca Ave,,43.688313,-79.389151,,,,,,1
1304,7127,Senlac Rd at Sheppard Ave West,,43.759325,-79.422808,,,,,,1
1305,1920,Don Mills Rd at The Donway East (North),,43.740691,-79.344191,,,,,,1
1306,2994,Pape Ave at Floyd Ave,,43.687582,-79.348221,,,,,,1
1307,7678,Ellesmere Rd at Birchmount Rd,,43.763213,-79.29162,,,,,,1
1309,9137,Calvington Dr at Dalraith Rd East Side,,43.731968,-79.490034,,,,,,1
1310,3125,53 St Regis Cres (South),,43.754702,-79.485537,,,,,,1
1311,3761,Islington Ave at Aylesbury Rd,,43.666523,-79.533099,,,,,,1
1312,4912,Coxwell Ave at Sammon Ave,,43.68867,-79.325674,,,,,,1
1314,9740,Barber Greene Rd at Don Mills Rd West Side,,43.727601,-79.341556,,,,,,1
1315,3646,Glencairn Ave at Dalemount Ave,,43.711263,-79.432802,,,,,,1
1316,3788,Islington Ave at Fairway Rd North Side,,43.655037,-79.527877,,,,,,1
1317,4821,Brimley Rd at Finch Ave East,,43.80535,-79.277042,,,,,,1
1318,3284,1919 Albion Rd,,43.746286,-79.619354,,,,,,1
1319,6086,Sheppard Ave West at Rivalda Rd,,43.73481,-79.533737,,,,,,1
1320,165,Bathurst St at Lawrence Ave West,,43.719105,-79.42961,,,,,,1
1321,1837,Danforth Ave at Sibley Ave,,43.690361,-79.292442,,,,,,1
1322,3527,Dundas St West at Willard Ave West Side,,43.665718,-79.488659,,,,,,1
1325,7752,Opposite 15 Fenmar Dr,,43.759283,-79.535507,,,,,,2
1326,6588,Middlefield Rd at McNicoll Ave,,43.820307,-79.262243,,,,,,1
1327,5276,Lawrence Ave East at Howden Rd,,43.746988,-79.287822,,,,,,1
1329,1939,Don Mills Rd at Goodview Rd,,43.783994,-79.35303,,,,,,1
1330,3362,Brimley Rd South at Kingston Rd South Side,,43.717705,-79.240255,,,,,,1
1331,6433,Huntingwood Dr at Brimley Rd,,43.798545,-79.273112,,,,,,1
1333,11096,Scarborough Golf Club Rd at Brimorton Dr,,43.769696,-79.218495,,,,,,1
1334,5710,Midland Ave at Kilcullen Castle Gate South Side,,43.80947,-79.290016,,,,,,1
1335,7982,Millwood Rd at Village Station Rd,,43.701944,-79.357766,,,,,,1
1338,8940,Yonge Blvd at Esgore Dr South Side,,43.740686,-79.414736,,,,,,1
1339,5664,McCowan Rd at Brimorton Dr,,43.765576,-79.249121,,,,,,1
1340,5610,Martin Grove Rd at Eglinton Ave West North Side,,43.674908,-79.563145,,,,,,1
1341,2255,Eglinton Ave East at Bruce Park Ave,,43.710528,-79.38007,,,,,,1
1342,4309,Kipling Ave at Farr Ave North Side,,43.744337,-79.582407,,,,,,1
1343,301,Bayview Ave at Heathcote Ave,,43.752072,-79.384794,,,,,,2
1344,5367,Lawrence Ave West at Duval Dr,,43.709838,-79.474431,,,,,,1
1345,2875,1050 McNicoll Ave,,43.804164,-79.333421,,,,,,1
1346,12197,Kennedy Rd at Purcell Sq South Side,,43.817073,-79.304258,,,,,,1
1347,6880,The Queensway at Smith Cres,,43.625834,-79.505342,,,,,,1
1348,9328,Baldoon Rd at Crow Trail,,43.813482,-79.231714,,,,,,1
1349,8895,Wilson Heights Blvd at Clifton Ave,,43.758743,-79.462791,,,,,,1
1350,8918,Woodbine Ave at Gerrard St East,,43.680685,-79.310607,,,,,,1
1351,6079,Sheppard Ave West at Laura Rd,,43.73797,-79.519976,,,,,,1
1352,898,Danforth Ave at Linnsmore Cres,,43.681899,-79.329933,,,,,,1
1353,5168,Lake Shore Blvd West at Third St,,43.601881,-79.500644,,,,,,1
1354,9833,Steeles Ave East at Brimley Rd,,43.828448,-79.286833,,,,,,1
1356,9069,York Mills Rd at Bayview Ave West Side,,43.748013,-79.38482,,,,,,1
1357,9441,Danforth Rd at Warden Ave,,43.697668,-79.274787,,,,,,1
1358,7766,230 Ian MacDonald Blvd,,43.775944,-79.507154,,,,,,2
1359,7451,Windermere Ave at Coe Hill Dr,,43.641325,-79.474456,,,,,,1
1360,2652,Glenorchy Rd at Saintfield Ave South Side,,43.728122,-79.36502,,,,,,1
1362,2346,Eglinton Ave West at Elmsthorpe Ave,,43.703986,-79.411032,,,,,,1
1363,8796,Willowdale Ave at Centre Ave,,43.793106,-79.412083,,,,,,2
1364,7154,Sheppard Ave East at Birchmount Rd,,43.780868,-79.298317,,,,,,1
1365,3177,Wilmington Ave at Codsell Ave,,43.755325,-79.45387,,,,,,1
1366,5567,Markham Rd at Kingston Rd,,43.738896,-79.2173,,,,,,1
1367,7857,Humber College Blvd at Finch Ave West South Side,,43.733717,-79.610132,,,,,,1
1368,401,Birchmount Rd at Denison St,,43.832967,-79.318991,,,,,,1
1369,12602,Markham Rd at McNicoll Ave,,43.824152,-79.248125,,,,,,2
1371,8824,Willowdale Ave at Silverview Dr,,43.786828,-79.409531,,,,,,1
1372,6956,Rockcliffe Blvd at Caesar Ave North Side,,43.679361,-79.490326,,,,,,2
1373,3759,Islington Ave at Aviemore Dr,,43.748528,-79.56845,,,,,,1
1374,3434,Chesswood Dr at Vanley Cres (South),,43.759446,-79.477988,,,,,,1
1375,2465,Faywood Blvd at Clanton Park Rd,,43.743635,-79.448587,,,,,,1
1376,3712,Horner Ave at Beta St,,43.603337,-79.538381,,,,,,1
1377,9812,Sheppard Ave East at Vandorf St,,43.803095,-79.155949,,,,,,1
1378,2813,Lawrence Ave East at Blaine Dr,,43.734799,-79.35908,,,,,,1
1379,1484,Rathburn Rd at Ivybridge Dr West Side,,43.648527,-79.585255,,,,,,2
1380,11695,Shaw St at King St West North Side,,43.641791,-79.415057,,,,,,1
1381,4733,Yonge St at St Clair Ave East - St. Clair Station,,43.687897,-79.393924,,,,,,1
1383,3935,Jane St at Weston Rd,,43.69169,-79.501113,,,,,,2
1384,4786,Avenue Rd at Lawrence Ave West,,43.722064,-79.415331,,,,,,1
1385,2186,Dundas St West at Sheridan Ave,,43.649721,-79.433841,,,,,,2
1386,8415,Vaughan Rd at Louise Ave,,43.684178,-79.421198,,,,,,1
1387,2376,Eglinton Ave West at Little Blvd,,43.693751,-79.458683,,,,,,1
1389,4141,King St East at Parliament St,,43.65291,-79.363021,,,,,,1
1390,8997,Yonge St at Glengrove Ave East,,43.719313,-79.400922,,,,,,1
1391,11784,Parkside Dr at High Park Blvd,,43.645008,-79.456353,,,,,,1
1392,8365,Thorncliffe Park Dr at Pat Moore Dr South Side,,43.708846,-79.344305,,,,,,1
1393,9447,Donlands Ave at Millwood Rd,,43.697193,-79.34892,,,,,,1
1395,8713,Weston Rd at Craydon Ave,,43.690365,-79.498482,,,,,,1
1396,7033,Royal York Rd at Trehorne Dr South Side,,43.690038,-79.530124,,,,,,1
1397,7117,Senlac Rd at Elmhurst Ave South Side,,43.760358,-79.423261,,,,,,1
1398,4164,King St West at Dowling Ave,,43.636552,-79.438719,,,,,,2
1399,11293,Finch Ave West at Highway 27 West Side,,43.73404,-79.604094,,,,,,1
1400,6306,90 Commander Blvd,,43.793732,-79.2663,,,,,,1
1401,8478,Victoria Park Ave at Lawrence Ave East,,43.742303,-79.310044,,,,,,1
1402,5472,Leslie St at Rippleton Rd,,43.742689,-79.35795,,,,,,2
1403,811,College St at Bathurst St,,43.656336,-79.407836,,,,,,2
1404,6884,The Queensway at The East Mall,,43.616252,-79.546531,,,,,,1
1405,50,Avenue Rd at Boswell Ave,,43.67262,-79.395613,,,,,,2
1406,1889,Dawes Rd at Dentonia Park Ave,,43.692236,-79.29716,,,,,,2
1407,3339,Belfield Rd at McCulloch Ave,,43.702447,-79.573153,,,,,,1
1408,12100,Corporate Dr at Lee Centre Dr (West),,43.780433,-79.247143,,,,,,1
1410,261,Bay St at Queen St West,,43.651684,-79.381439,,,,,,1
1411,8341,Teak Ave at Carnforth Rd,,43.737394,-79.317564,,,,,,1
1412,6490,Kingston Rd at Manse Rd,,43.774713,-79.178071,,,,,,1
1413,250,Bay St at Grosvenor St,,43.66238,-79.386209,,,,,,1
1414,1410,O'Connor Dr at Derwyn Rd,,43.696467,-79.335009,,,,,,1
1415,2069,Dufferin St at Lawrence Ave West North Side,,43.714493,-79.454638,,,,,,1
1416,2158,Dundas St West at Dovercourt Rd,,43.649365,-79.424889,,,,,,2
1417,5599,Martin Grove Rd at Bethridge Rd North Side,,43.707846,-79.57813,,,,,,1
1419,4204,Kingston Rd at Bellamy Rd South,,43.732376,-79.224488,,,,,,1
1420,1478,Rathburn Rd at Walkway to Alanmeade Cres,,43.656155,-79.558725,,,,,,1
1421,13956,Roywood Dr at Marbury Cres (East),,43.764221,-79.333938,,,,,,1
1422,8546,Warden Ave at Cass Ave,,43.775838,-79.306372,,,,,,1
1423,8430,Victoria Park Ave at Amsterdam Ave,,43.715142,-79.298512,,,,,,1
1425,7152,Sheppard Ave East at Bayview Ave East Side - Bayview Station,,43.766665,-79.387427,,,,,,1
1426,4307,Kipling Ave at Evans Ave North Side,,43.616344,-79.524766,,,,,,1
1427,5838,Mt Pleasant Rd at Roslin Ave,,43.730321,-79.398227,,,,,,1
1428,14121,Islington Ave at Rexdale Blvd South Side,,43.715136,-79.555271,,,,,,1
1429,12039,Queen's Plate Dr West at Janda Crt,,43.722865,-79.601188,,,,,,1
1430,3304,Barkdene Hills at Brooklawn Ave,,43.716585,-79.233773,,,,,,1
1431,8048,68 Railside Rd,,43.737946,-79.322386,,,,,,1
1432,7133,Sheppard Ave East at Walkway to Burrows Hall Blvd,,43.796945,-79.222996,,,,,,1
1433,1028,Dupont St at Spadina Rd West Side - Dupont Station,,43.674888,-79.407407,,,,,,1
1434,5545,Maple Leaf Dr at Jane St,,43.709365,-79.505335,,,,,,1
1435,4469,Markham Rd at Milner Ave,,43.789774,-79.237366,,,,,,1
1436,2532,Finch Ave East at Middlefield Rd,,43.809716,-79.257907,,,,,,1
1437,2769,Kingston Rd at Brinloor Blvd,,43.74133,-79.214529,,,,,,1
1438,6343,Davean Dr at Woodsworth Rd West Side,,43.76265,-79.364615,,,,,,1
1439,11524,Royalcrest Rd at Leading Rd East Side,,43.750423,-79.607085,,,,,,1
1440,2379,Eglinton Ave West at Marlee Ave,,43.697932,-79.439508,,,,,,1
1441,541,Bloor St West at Mapledawn Rd,,43.632914,-79.573329,,,,,,1
1443,5373,Lawrence Ave West at Good Shepherd Crt,,43.71314,-79.458605,,,,,,1
1444,7348,Spadina Rd at Davenport Rd,,43.677147,-79.407959,,,,,,1
1445,2275,Eglinton Ave East at Ionview Rd,,43.731274,-79.27128,,,,,,1
1447,9456,Cosburn Ave at Woodbine Ave,,43.696293,-79.317537,,,,,,1
1449,3927,Jane St at St Clair Ave West,,43.667629,-79.492109,,,,,,2
1450,3337,Belfield Rd at Martin Grove Rd,,43.701705,-79.576011,,,,,,1
1452,7578,Carlingview Dr at Dixon Rd,,43.68704,-79.595817,,,,,,1
1453,8448,Victoria Park Ave at Deanvar Ave South Side,,43.745244,-79.311028,,,,,,1
1455,9689,Gerrard St East at Clonmore Dr,,43.688532,-79.278699,,,,,,1
1456,6692,Pharmacy Ave at Dewey Dr,,43.755116,-79.309498,,,,,,1
1457,4885,Church St at Uphill Ave,,43.708489,-79.508686,,,,,,1
1458,6081,Sheppard Ave West at Magellan Dr,,43.73954,-79.509788,,,,,,1
1459,837,College St at McCaul St,,43.659061,-79.393721,,,,,,2
1461,8917,Woodbine Ave at Eastwood Rd,,43.676586,-79.309075,,,,,,1
1462,2313,Eglinton Ave East at Sutherland Dr,,43.713201,-79.36698,,,,,,1
1463,9679,Brimley Rd at Steeles Ave East North Side,,43.82885,-79.287081,,,,,,1
1464,9784,Steeles Ave East at Walkway to Scoville Sq,,43.827819,-79.288717,,,,,,1
1465,4095,Kennedy Rd at Lawrence Ave East,,43.749286,-79.274696,,,,,,1
1466,8595,Warden Ave at Minford Ave North Side,,43.737216,-79.291294,,,,,,1
1467,6275,111 Cactus Ave,,43.791796,-79.433834,,,,,,1
1468,4695,Victoria Park Ave at Swanwick Ave,,43.684926,-79.285674,,,,,,1
1469,892,Danforth Ave at Greenwood Ave,,43.681346,-79.332469,,,,,,1
1471,2686,Guildwood Pkwy at Prince Philip Blvd,,43.746245,-79.202992,,,,,,1
1472,9446,Donlands Ave at Wolverton Ave,,43.696232,-79.345562,,,,,,1
1473,10535,Warden Ave at Steeles Ave East,,43.819365,-79.324229,,,,,,1
1474,709,Caledonia Rd at Cartwright Ave,,43.721696,-79.469256,,,,,,1
1475,2960,Morningside Ave at Milner Ave,,43.800408,-79.199317,,,,,,1
1476,6798,Pritchard Ave at Jane St East Side,,43.66956,-79.492402,,,,,,2
1477,282,Bayview Ave at Byng Ave North Side,,43.782213,-79.391381,,,,,,1
1478,11516,Maple Leaf Dr at Roadway to 290-300 Queens Dr Apartments,,43.709687,-79.502436,,,,,,1
1479,2168,Dundas St West at Huron St,,43.653245,-79.396248,,,,,,2
1480,2839,Bingham Loop,,43.68146,-79.285,,,,,,2
1481,6755,Pharmacy Ave at Stellarton Rd,,43.713755,-79.292742,,,,,,1
1483,9650,Lawrence Ave East at McCowan Rd,,43.755706,-79.245279,,,,,,1
1484,8417,Vaughan Rd at Maplewood Ave South Side,,43.685684,-79.422035,,,,,,1
1485,7722,Ellesmere Rd at Dundalk Dr West Side,,43.765185,-79.284336,,,,,,1
1486,4076,Kennedy Rd at Cornwallis Dr South Side,,43.751587,-79.275821,,,,,,1
1487,8489,Opposite 2791 Victoria Park Ave,,43.782185,-79.326411,,,,,,1
1488,10260,Morning Star Dr at Collett Rd,,43.710376,-79.649557,,,,,,2
1489,5354,Lawrence Ave West at Via Bagnato,,43.71448,-79.452245,,,,,,2
1490,6504,Lambton Ave at Guestville Ave,,43.682894,-79.489445,,,,,,2
1491,5829,Mt Pleasant Rd at Lawrence Cres,,43.724052,-79.396478,,,,,,1
1492,5390,Lawrence Ave West at Marlee Ave West Side,,43.715591,-79.447093,,,,,,1
1493,3233,Yonge St at Irwin Ave,,43.666768,-79.385426,,,,,,1
1495,7020,Royal York Rd at Castlebar Rd South Side,,43.632338,-79.505182,,,,,,1
1496,4586,Roselawn Ave at Chaplin Cres,,43.705564,-79.424184,,,,,,1
1497,864,Cosburn Ave at Todmorden Lane,,43.690184,-79.345205,,,,,,1
1498,13664,Markham Rd at Highglen Ave,,43.851489,-79.254731,,,,,,1
1499,10673,Ormskirk Ave at Ripley Ave East Side,,43.639262,-79.475792,,,,,,1
1500,4854,Carlaw Ave at Dundas St East,,43.664707,-79.341479,,,,,,2
1502,8616,Warden Ave at Walkway to Seagrave Cres,,43.809176,-79.322148,,,,,,1
1503,4971,Dixon Rd at Chetta Pl,,43.696037,-79.551671,,,,,,1
1504,387,Birchmount Rd at Canadian Rd,,43.761471,-79.290724,,,,,,2
1505,5440,Leslie St at Eglinton Ave East,,43.717819,-79.350442,,,,,,2
1506,1353,44 Milner Ave,,43.785124,-79.253539,,,,,,2
1507,283,Bayview Ave at Byng Ave South Side,,43.781659,-79.391546,,,,,,1
1509,7466,York Mills Rd at Banbury Rd (East),,43.752639,-79.365268,,,,,,1
1510,4835,Brimley Rd at Walkway to Goldhawk Trail,,43.818639,-79.28304,,,,,,1
1512,1680,Albion Rd at Beaumonde Heights Park West Side,,43.738716,-79.573613,,,,,,2
1513,7061,Runnymede Rd at Glenwood Ave,,43.65703,-79.478841,,,,,,1
1516,8692,3636 Weston Rd,,43.759232,-79.544263,,,,,,1
1517,5101,Gary Dr at Langside Ave,,43.711282,-79.518289,,,,,,1
1518,7378,Summerhill Ave at Maclennan Ave,,43.685729,-79.377692,,,,,,2
1519,7557,Birchmount Rd at Raleigh Ave,,43.701761,-79.265833,,,,,,1
1520,2869,McCaul St at Queen St West,,43.650329,-79.389837,,,,,,2
1521,2830,Lesmill Rd at York Mills Rd North Side,,43.755081,-79.352084,,,,,,1
1522,7738,Eringate Dr at Sanctbury Pl,,43.661653,-79.578729,,,,,,1
1523,1269,Markland Dr (West) at Bloor St West North Side,,43.629667,-79.580248,,,,,,1
1524,9188,York Mills Rd at Bayview Ave,,43.74787,-79.384519,,,,,,1
1525,6536,Maclennan Ave at Douglas Dr,,43.684806,-79.377845,,,,,,1
1526,25,Annette St at Durie St,,43.659636,-79.482199,,,,,,1
1527,1596,Steeles Ave West at Petrolia Rd,,43.782395,-79.490224,,,,,,1
1528,3983,Keele St at Sir William Hearst Ave,,43.724529,-79.48185,,,,,,1
1529,4206,Kingston Rd at Birchcliff Ave,,43.691611,-79.264661,,,,,,1
1530,6681,Pharmacy Ave at Comstock Rd,,43.71919,-79.294806,,,,,,1
1533,4662,Tapscott Rd at Lighthall Cres North Side,,43.810955,-79.235578,,,,,,1
1535,8152,St Clair Ave West at Bathurst St,,43.682988,-79.418395,,,,,,1
1536,3656,Glencairn Ave at Glenmount Ave,,43.711786,-79.430404,,,,,,2
1537,9598,Nugget Ave at Markham Rd West Side,,43.798528,-79.241813,,,,,,1
1539,13526,The Bridle Walk at Major Mackenzie Dr East,,43.899444,-79.309415,,,,,,1
1540,499,Bloor St West at Brunswick Ave,,43.665998,-79.40732,,,,,,1
1542,3944,Jane St at Yewtree Blvd North Side,,43.755135,-79.516962,,,,,,1
1543,5798,Mortimer Ave at Woodycrest Ave,,43.686491,-79.344572,,,,,,1
1545,3417,Chaplin Cres at Oriole Pkwy,,43.697898,-79.403592,,,,,,1
1546,6100,Southwood Dr at Williamson Rd,,43.674546,-79.296404,,,,,,2
1547,9603,Nugget Ave at McCowan Rd,,43.792335,-79.258866,,,,,,1
1548,2491,Finch Ave East at Birchmount Rd,,43.799172,-79.305756,,,,,,1
1550,4914,Coxwell Ave at Springdale Blvd,,43.687212,-79.32509,,,,,,2
1551,10945,Queens Quay/Ferry Docks Station,,43.641806,-79.377186,,,,,,1
1552,12028,McNicoll Ave at Boxdene Ave,,43.818577,-79.269377,,,,,,1
1553,6381,Flemington Rd at Blossomfield Dr North Side,,43.719203,-79.448181,,,,,,1
1554,9453,Cosburn Ave at Roosevelt Rd East Side,,43.693505,-79.330567,,,,,,1
1555,6195,The Westway at Martin Grove Rd East Side,,43.683365,-79.566594,,,,,,1
1558,2716,Islington Ave at Beaumonde Heights Dr North Side,,43.742858,-79.567695,,,,,,1
1559,5646,Martin Grove Rd at Silverstone Dr,,43.75081,-79.598364,,,,,,1
1560,5580,Markham Rd at Progress Ave,,43.781634,-79.233561,,,,,,2
1561,2307,Eglinton Ave East at Rosemount Dr,,43.730969,-79.273818,,,,,,1
1562,2460,Faywood Blvd at Almore Ave,,43.745627,-79.448995,,,,,,1
1563,7873,Jesmond Ave at Cedric Ave,,43.690034,-79.437502,,,,,,2
1565,5799,Mortimer Ave at Woodycrest Ave,,43.686686,-79.344244,,,,,,1
1566,812,College St at Bathurst St,,43.65657,-79.407339,,,,,,2
1567,4346,Kipling Ave at North Heights Rd,,43.66486,-79.545581,,,,,,2
1568,8729,Weston Rd at Habitant Dr,,43.746053,-79.541212,,,,,,1
1570,11614,Steeles Ave East at Walkway to Joycedale St,,43.833683,-79.264264,,,,,,1
1571,9818,4325 McCowan Rd (Milliken Park Rec Centre),,43.828928,-79.275068,,,,,,1
1573,2227,The East Mall at Yarn Rd,,43.632288,-79.553477,,,,,,1
1574,11835,Vaughan Rd at Oakwood Ave East Side,,43.691979,-79.439825,,,,,,1
1575,903,Danforth Ave at Monarch Park Ave,,43.682686,-79.327079,,,,,,1
1576,7996,Norelco Dr at Ormont Dr,,43.767357,-79.534477,,,,,,2
1577,950,Davenport Rd at Ossington Ave East Side,,43.674664,-79.43042,,,,,,1
1578,4756,Airport Rd at Hull St,,43.70411,-79.642841,,,,,,2
1579,8084,Sentinel Rd at Fountainhead Rd North Side,,43.762623,-79.500454,,,,,,1
1581,4139,King St East at Ontario St,,43.651864,-79.365876,,,,,,1
1582,932,Davenport Rd at Caledonia Park Rd East Side,,43.671107,-79.450521,,,,,,1
1583,962,Donlands Ave at Floyd Ave,,43.689149,-79.340977,,,,,,1
1584,3993,Keele St at Flamborough Dr,,43.703006,-79.476876,,,,,,1
1585,907,Danforth Ave at Playter Blvd,,43.676835,-79.355193,,,,,,1
1586,1954,Don Mills Rd at Moatfield Dr South Side,,43.758327,-79.34732,,,,,,1
1587,5538,Main St at Swanwick Ave,,43.682102,-79.299333,,,,,,1
1588,9567,Nugget Ave at Dovedale Crt,,43.796749,-79.24753,,,,,,1
1589,7181,Sheppard Ave East at Durnford Rd,,43.800865,-79.150843,,,,,,1
1591,9627,The East Mall at The Queensway,,43.61622,-79.546041,,,,,,1
1592,9467,Cosburn Ave at Greenwood Ave,,43.692125,-79.337602,,,,,,2
1593,5156,Lake Shore Blvd West at Twenty Second St,,43.597338,-79.521251,,,,,,1
1594,7405,Varna Dr at Lawrence Ave West,,43.717831,-79.437849,,,,,,1
1596,369,Bellamy Rd North at Painted Post Dr,,43.760591,-79.236272,,,,,,1
1597,9969,Lawrence Ave East at Opposite Walkway to Ridgewood Rd,,43.786215,-79.12498,,,,,,2
1598,2089,Dufferin St at Shanly St,,43.663251,-79.436864,,,,,,1
1599,3799,Islington Ave at Gosfield Gate South Side,,43.725271,-79.560044,,,,,,1
1600,4610,Spadina Rd at Heath St West,,43.686674,-79.411904,,,,,,1
1602,354,Bellamy Rd North at Ellesmere Rd South Side,,43.773883,-79.241768,,,,,,1
1603,9290,Drewry Ave at Hilda Ave,,43.785533,-79.42422,,,,,,1
1605,2449,Evans Ave at Kipling Ave,,43.616042,-79.524347,,,,,,1
1606,2170,Dundas St West at Lansdowne Ave,,43.650111,-79.440135,,,,,,2
1607,2929,Opposite 1275 Morningside Ave,,43.803405,-79.200274,,,,,,1
1608,3394,Calvington Dr at Exbury Rd,,43.730998,-79.495198,,,,,,2
1609,156,Bathurst St at Blue Flag Gate,,43.768648,-79.441865,,,,,,1
1612,1055,Finch Ave East at McCowan Rd,,43.807845,-79.266726,,,,,,1
1613,9299,115 Skyway Ave,,43.683855,-79.583031,,,,,,1
1615,669,Burnhamthorpe Rd at Martin Grove Rd,,43.64852,-79.549756,,,,,,1
1616,8505,Victoria Park Ave at St Clair Ave East,,43.708618,-79.295766,,,,,,1
1617,6985,Royal York Rd at Country Club Dr,,43.674485,-79.523222,,,,,,2
1618,7375,Stephen Dr at Whitworth Ave North Side,,43.632813,-79.48521,,,,,,1
1619,3722,Horner Ave at Judson St,,43.611721,-79.51549,,,,,,1
1620,4818,Brimley Rd at Chartland Blvd South,,43.801619,-79.274871,,,,,,1
1621,411,Birchmount Rd at Finch Ave East,,43.798743,-79.305691,,,,,,1
1623,491,Bloor St West at Bathurst St,,43.665017,-79.411321,,,,,,1
1624,7110,Senlac Rd at Burnett Ave,,43.762414,-79.424112,,,,,,1
1626,2337,Eglinton Ave West at Ronald Ave,,43.694247,-79.456973,,,,,,1
1627,573,Bloor St West at Queens Park,,43.668555,-79.394305,,,,,,1
1628,11843,Lambton Ave at Beechwood Ave East Side,,43.681788,-79.494374,,,,,,1
1630,9037,Yonge St at Crescent Rd South Side - Rosedale Station,,43.676573,-79.389457,,,,,,1
1631,5864,45 Norfinch Dr,,43.757191,-79.526818,,,,,,1
1632,4596,Sheppard Ave West at Kodiak Cres (South),,43.751865,-79.466919,,,,,,1
1633,3852,Islington Ave at Westhampton Dr South Side,,43.70418,-79.550141,,,,,,2
1635,5954,Ossington Ave at Churchill Ave,,43.651764,-79.421588,,,,,,1
1636,11608,Steeles Ave East at Shadlock St,,43.834084,-79.261385,,,,,,1
1637,4748,6355 Airport Rd,,43.691085,-79.62516,,,,,,2
1638,466,Birchmount Rd at Walkway to Ambercroft Blvd,,43.813872,-79.313644,,,,,,1
1639,623,Brimley Rd at Dorcot Ave South Side,,43.758728,-79.257178,,,,,,1
1640,10220,Harbord St at Manning Ave,,43.660422,-79.41477,,,,,,1
1641,2482,Finch Ave East at Alamosa Dr,,43.789011,-79.373464,,,,,,1
1642,334,Bedford Rd at Davenport Rd,,43.674533,-79.399915,,,,,,1
1643,14244,Warden Ave at Glenburn Forest Way,,43.877573,-79.339413,,,,,,1
1644,6899,The Queensway at Loma Rd,,43.625085,-79.508653,,,,,,1
1645,2750,Kennedy Rd at Danforth Rd North Side,,43.71552,-79.260971,,,,,,1
1646,61,Avenue Rd at Dupont St,,43.677107,-79.397418,,,,,,1
1647,8699,Weston Rd at Bradstock Rd,,43.739191,-79.539595,,,,,,1
1650,1420,O'Connor Dr at Pape Ave,,43.693341,-79.35014,,,,,,1
1651,13316,Opposite 2650 St Clair Ave West,,43.666472,-79.496591,,,,,,2
1652,7115,Senlac Rd at Ellerslie Ave,,43.768501,-79.426542,,,,,,2
1653,3088,Queen St West at Spadina Ave,,43.648886,-79.396062,,,,,,1
1654,10543,Warden Ave at Highway 7,,43.855541,-79.333641,,,,,,1
1655,7701,Ellesmere Rd at Mornelle Crt,,43.785001,-79.195193,,,,,,1
1656,150,Bathurst St at Heathdale Rd South Side,,43.688764,-79.420688,,,,,,2
1657,5589,Martin Grove Rd at Albion Rd,,43.742431,-79.594611,,,,,,2
1658,8139,St Clair Ave East at Denvale Rd,,43.704379,-79.318373,,,,,,1
1659,7810,Harbord St at Grace St,,43.659844,-79.417575,,,,,,1
1661,273,Bayview Ave at Garnier Park,,43.801054,-79.395495,,,,,,1
1662,5677,McCowan Rd at St Andrews Rd,,43.760033,-79.246706,,,,,,1
1663,5942,O'Connor Dr at Woodbine Ave,,43.699767,-79.319601,,,,,,1
1664,4402,Lansdowne Ave at Dupont St,,43.666865,-79.446607,,,,,,1
1665,1739,Birchmount Rd at Danforth Ave,,43.697222,-79.26419,,,,,,1
1666,2478,Ferris Rd at Squires Ave,,43.704938,-79.298704,,,,,,1
1667,5448,Leslie St at Greyhound Dr South Side,,43.792031,-79.368629,,,,,,1
1668,8989,Yonge St at Finch Ave West - Finch Station,,43.779948,-79.415773,,,,,,1
1669,1433,38 Orfus Rd,,43.719707,-79.459476,,,,,,1
1670,4490,Milvan Dr at Penn Dr (North),,43.755316,-79.55831,,,,,,1
1672,4002,Keele St at Ingram Dr,,43.699279,-79.475771,,,,,,1
1675,9099,Steeprock Dr at Whitehorse Rd,,43.758296,-79.472614,,,,,,1
1676,9672,Park Rd (Zoo) at Kirkhams Rd East Side,,43.818209,-79.17505,,,,,,2
1677,236,Bay St at Charles St West South Side,,43.667981,-79.388876,,,,,,1
1678,4007,Keele St at Lawrence Ave West North Side,,43.709426,-79.478013,,,,,,1
1680,7946,Victoria Park Ave Loop at Steeles Ave East,,43.81662,-79.341413,,,,,,1
1681,8398,Upper Highland Cres at Munro Blvd,,43.746221,-79.396657,,,,,,2
1682,972,Donlands Ave at Somers Ave South Side,,43.684304,-79.338993,,,,,,1
1683,5636,Martin Grove Rd at Rampart Rd,,43.734111,-79.590525,,,,,,1
1684,6382,Flemington Rd at Blossomfield Dr,,43.719114,-79.448356,,,,,,1
1685,7453,Windermere Pl at Windermere Ave,,43.63814,-79.47108,,,,,,1
1686,4503,Old Weston Rd at Rockwell Ave,,43.67668,-79.464001,,,,,,1
1687,3886,Jane St at Eglinton Ave West North Side,,43.684858,-79.498753,,,,,,1
1688,2834,44 Longbourne Dr,,43.680204,-79.568671,,,,,,1
1689,10527,Ellesmere Rd at Calverley Trail,,43.78949,-79.176571,,,,,,1
1690,818,College St at Brock Ave,,43.651699,-79.436456,,,,,,2
1691,8998,Yonge St at Glengrove Ave West,,43.719635,-79.401209,,,,,,1
1692,2944,Morningside Ave at Fordover Dr,,43.75464,-79.180318,,,,,,1
1693,2558,Finch Ave East at Tapscott Rd,,43.814063,-79.237335,,,,,,1
1694,756,Carlton St at Ontario St,,43.663821,-79.370401,,,,,,2
1696,1667,Yonge St at Belsize Dr,,43.700201,-79.396851,,,,,,1
1697,7474,York Mills Rd at Upper Highland Cres,,43.745541,-79.396356,,,,,,1
1698,5629,Martin Grove Rd at Milkwood Ave,,43.73022,-79.588737,,,,,,1
1699,9375,Christie St at Davenport Rd,,43.675754,-79.423265,,,,,,2
1700,2391,Eglinton Ave West at Old Forest Hill Rd,,43.701626,-79.42291,,,,,,1
1701,2935,Morningside Ave at Casebridge Crt,,43.808784,-79.202489,,,,,,1
1702,6463,Huntingwood Dr at St Crispins Dr,,43.792014,-79.297501,,,,,,1
1703,8789,Willowdale Ave at Abitibi Ave North Side,,43.797969,-79.413792,,,,,,2
1704,5035,East Ave at East Willow Gate,,43.787478,-79.134523,,,,,,1
1705,7180,Sheppard Ave East at Atrium Lane,,43.800904,-79.150306,,,,,,1
1706,5744,Midland Ave at South Shields Ave,,43.806921,-79.288598,,,,,,1
1708,13951,Underpass Gate at Fenelon Dr East Side,,43.762033,-79.337416,,,,,,1
1709,4072,Kennedy Rd at Brigstock Rd South Side,,43.760979,-79.279507,,,,,,1
1712,4143,King St East at Sackville St,,43.6543,-79.360379,,,,,,1
1713,4703,Washburn Way at Sheppard Ave East North Side,,43.796634,-79.227621,,,,,,1
1715,8730,Weston Rd at Humber Blvd,,43.683252,-79.480482,,,,,,1
1717,3,Alness St at Flint Rd,,43.781744,-79.477584,,,,,,1
1719,5163,Lake Shore Blvd West at Thirty First St,,43.595155,-79.530407,,,,,,1
1720,9529,Opposite 49 Mabelle Ave,,43.645504,-79.528623,,,,,,1
1721,10951,Littles Rd at Old Finch Ave,,43.820932,-79.206036,,,,,,1
1722,5120,High Park Ave at Glenlake Ave,,43.657296,-79.466955,,,,,,1
1723,4116,Kennedy Rd at Radnor Ave,,43.746029,-79.27381,,,,,,2
1724,3932,Jane St at Trethewey Dr,,43.697301,-79.502161,,,,,,1
1725,6209,Wicksteed Ave at Brentcliffe Rd,,43.711068,-79.359815,,,,,,2
1727,8564,Warden Ave at Fairfax Cres,,43.716262,-79.282981,,,,,,1
1728,6335,Crescent Rd at Rosedale Rd West Side,,43.677806,-79.384925,,,,,,2
1731,8795,Willowdale Ave at Centre Ave,,43.792942,-79.411754,,,,,,2
1732,8690,Weston Rd at Burgundy Crt North Side,,43.729288,-79.535903,,,,,,1
1733,4707,Washburn Way at Mammoth Hall Trail,,43.801071,-79.226152,,,,,,1
1734,5045,75 The East Mall,,43.618788,-79.548016,,,,,,1
1735,5456,Leslie St at Longwood Dr,,43.749578,-79.359402,,,,,,2
1736,10122,Park Lawn Rd at Cannon Rd,,43.632976,-79.491946,,,,,,1
1737,5162,Lake Shore Blvd West at Thirtieth St,,43.595472,-79.52966,,,,,,1
1738,10014,McCowan Rd at Gillingham Ave,,43.835334,-79.276532,,,,,,1
1739,3030,Queen St East at Jones Ave,,43.662578,-79.332925,,,,,,1
1740,9370,Christie St at Tyrrel Ave,,43.678108,-79.424072,,,,,,1
1743,1932,Don Mills Rd at Finch Ave East,,43.792867,-79.355008,,,,,,1
1744,3034,Queen St East at Brooklyn Ave,,43.662069,-79.335808,,,,,,1
1745,8484,Victoria Park Ave at Meighen Ave,,43.705359,-79.294425,,,,,,1
1746,9169,Leslie St at York Mills Rd South Side,,43.752553,-79.360065,,,,,,1
1747,2327,Eglinton Ave West at Bathurst St,,43.701254,-79.424599,,,,,,1
1748,11237,Giltspur Dr at Jane St,,43.734812,-79.511004,,,,,,2
1750,5511,Long Branch Loop,,43.591811,-79.544124,,,,,,1
1751,1443,Park St at Atlee Ave,,43.711332,-79.250949,,,,,,1
1752,4215,Kingston Rd at Chine Dr,,43.714299,-79.245098,,,,,,1
1753,382,Birchmount Rd at Bonis Ave,,43.783476,-79.299124,,,,,,1
1754,2697,Highview Ave at Lillington Ave,,43.70047,-79.263074,,,,,,2
1757,3378,Brooklawn Ave at Kingston Rd South Side,,43.72161,-79.235893,,,,,,1
1758,13334,Kingston Rd at Resthaven Memorial Gardens,,43.715819,-79.243388,,,,,,1
1759,73,Avenue Rd at Wilson Ave,,43.739705,-79.421397,,,,,,1
1760,323,Bayview Ave at Truman Rd,,43.760431,-79.386402,,,,,,1
1761,7335,South Dr at Glen Rd,,43.677655,-79.374974,,,,,,2
1762,7208,Sheppard Ave East at Massie St West Side,,43.792506,-79.245714,,,,,,1
1763,2965,Morningside Ave at Sewells Rd North Side,,43.816633,-79.21143,,,,,,1
1764,1989,The Donway West at Lawrence Ave East North Side,,43.737449,-79.34679,,,,,,1
1765,934,Davenport Rd at Christie St West Side,,43.67551,-79.423565,,,,,,1
1766,1196,Jones Ave at Shudell Ave,,43.675267,-79.33828,,,,,,2
1767,3260,York Mills Rd at Hedgewood Rd East Side,,43.744875,-79.398732,,,,,,1
1769,1888,Dawes Rd at Dentonia Park Ave,,43.691876,-79.296963,,,,,,1
1770,4085,Kennedy Rd at Forbes Rd,,43.75534,-79.276894,,,,,,1
1771,8264,Steeles Ave West at Capstan Gate,,43.783447,-79.487039,,,,,,1
1772,6678,Pharmacy Ave at Christina Cres (South),,43.760833,-79.311035,,,,,,1
1773,479,Bloor St East at Church St,,43.671146,-79.382992,,,,,,1
1774,6757,Pharmacy Ave at Sundridge Dr,,43.721584,-79.296037,,,,,,1
1775,1002,Dupont St at Dovercourt Rd,,43.669591,-79.432851,,,,,,1
1776,5817,Mt Pleasant Rd at Erskine Ave,,43.712685,-79.391869,,,,,,1
1778,1421,O'Connor Dr at Rivercourt Blvd,,43.693704,-79.348146,,,,,,2
1779,6618,Neptune Dr at Rajah St,,43.732085,-79.438452,,,,,,1
1780,2746,519 Kennedy Rd,,43.719561,-79.262395,,,,,,2
1781,8457,Victoria Park Ave at Elvaston Dr South Side,,43.729518,-79.304809,,,,,,1
1782,10151,College St at Major St,,43.657551,-79.402667,,,,,,2
1784,7771,Garyray Dr at Norelco Dr,,43.769757,-79.535855,,,,,,2
1785,5914,Oakwood Ave at St Clair Ave West North Side,,43.680177,-79.435813,,,,,,1
1786,6399,Glen Rd at Douglas Dr,,43.685279,-79.372548,,,,,,2
1787,690,Burnhamthorpe Rd at Renforth Dr West Side,,43.643391,-79.572865,,,,,,1
1788,6652,Parliament St at Wellesley St East South Side,,43.667919,-79.369546,,,,,,1
1789,8758,Weston Rd at Dora Spencer Rd North Side,,43.69228,-79.503078,,,,,,2
1790,7968,Opposite 1314 Military Trail,,43.784336,-79.183802,,,,,,2
1791,590,3700 Bloor St West at Resurrection Rd,,43.643174,-79.530639,,,,,,1
1792,2503,Finch Ave East at Cherokee Blvd,,43.793549,-79.336707,,,,,,1
1793,125,Bathurst St at Drewry Ave,,43.780932,-79.444599,,,,,,1
1794,9030,Yonge St at Montgomery Ave,,43.709702,-79.399096,,,,,,1
1795,10890,Dovercourt Rd at Davenport Rd South Side,,43.673928,-79.434562,,,,,,2
1796,5972,Ossington Ave at Harbord St,,43.6584,-79.424161,,,,,,1
1798,3424,4375 Chesswood Dr,,43.761034,-79.477914,,,,,,2
1799,1197,Jones Ave at Sproat Ave South Side,,43.667755,-79.335064,,,,,,1
1800,2694,Highview Ave at Baudina Cres,,43.701539,-79.258418,,,,,,1
1801,2043,Dufferin St at Dundas St West,,43.649459,-79.431252,,,,,,1
1802,8974,Yonge St at Cranbrooke Ave,,43.729258,-79.403404,,,,,,1
1803,8450,Victoria Park Ave at Draycott Dr South Side,,43.731992,-79.305827,,,,,,1
1804,6474,Lower Jarvis St at The Esplanade,,43.648078,-79.370754,,,,,,1
1805,3212,Yonge St at Bishop Ave North Side - Finch Station,,43.782039,-79.415929,,,,,,1
1807,2895,McNicoll Ave at Mogul Dr,,43.799755,-79.351958,,,,,,1
1809,9678,Brimley Rd at Steeles Ave East,,43.828106,-79.287072,,,,,,1
1810,2796,Kingston Rd at Southwood Dr,,43.678753,-79.298363,,,,,,1
1812,2198,615 The East Mall,,43.657031,-79.566765,,,,,,1
1813,9874,Sheffield St at Densley Ave,,43.705094,-79.47051,,,,,,1
1814,9847,Brenyon Way at Pioneer Pathway,,43.806177,-79.213499,,,,,,1
1815,6247,Bannatyne Dr at Riderwood Dr,,43.758019,-79.364362,,,,,,1
1817,5028,Dundas St West at Shorncliffe Rd,,43.631902,-79.544849,,,,,,1
1818,7242,Sheppard Ave East at Old Leslie St - Leslie Station,,43.771198,-79.366681,,,,,,1
1819,7299,Sheppard Ave West at Wilson Heights Blvd,,43.751438,-79.457028,,,,,,1
1820,8307,Steeles Ave West at Old Weston Rd,,43.771107,-79.543085,,,,,,1
1822,9420,Davenport Rd at Wychwood Park West Side,,43.676582,-79.419513,,,,,,2
1823,8801,Willowdale Ave at Elmwood Ave,,43.768664,-79.401523,,,,,,1
1824,8240,Steeles Ave East at Valloncliffe Rd,,43.805174,-79.388087,,,,,,2
1826,13711,St Clair Ave West at Mondovi Gate West Side,,43.670832,-79.475535,,,,,,1
1827,11948,Sunrise Ave at O'Connor Dr,,43.719177,-79.303662,,,,,,1
1828,2747,Opposite 519 Kennedy Rd (Cemetery),,43.719412,-79.262595,,,,,,1
1830,12021,McNicoll Ave at Brimley Rd,,43.815533,-79.282137,,,,,,1
1831,5876,549 Oakdale Rd,,43.750547,-79.526479,,,,,,1
1832,4648,Symington Ave at Bloor St West North Side,,43.657711,-79.447811,,,,,,1
1833,5915,Oakwood Ave at St Clair Ave West,,43.679367,-79.435722,,,,,,1
1834,6173,Weston Rd at Church St South Side,,43.7027,-79.524832,,,,,,1
1835,6321,250 Consumers Rd,,43.770565,-79.330154,,,,,,1
1836,7394,Van Horne Ave at Lucifer Dr,,43.787545,-79.337482,,,,,,1
1837,13449,Eglinton Ave East at Prudham Gate,,43.728602,-79.284686,,,,,,1
1838,8175,St Clair Ave West at Northcliffe Blvd,,43.678272,-79.440957,,,,,,1
1839,1722,Bayview Ave at Fleming Cres North Side,,43.707182,-79.375606,,,,,,1
1840,3876,Jane St at Courage Ave South Side,,43.744734,-79.514671,,,,,,1
1841,9634,Warden Ave at 125 Bamburgh Cir Apts,,43.81447,-79.32467,,,,,,1
1842,9281,Antibes Dr (South) at Torresdale Ave East Side,,43.779378,-79.451816,,,,,,1
1843,9031,Yonge St at Moore Park Ave,,43.793966,-79.419209,,,,,,1
1844,7741,Eringate Dr at Wellesworth Dr,,43.660956,-79.580612,,,,,,1
1846,10710,Atkinson Ave at Dundurn Cres (South),,43.81725,-79.444709,,,,,,1
1847,13318,St Clair Ave West at Jane St,,43.667011,-79.492085,,,,,,2
1848,569,Bloor St West at Prince Edward Dr North West Side,,43.648628,-79.506028,,,,,,1
1849,640,Brimley Rd at Seminole Ave North Side,,43.745342,-79.251847,,,,,,1
1850,6720,Pharmacy Ave at Kellyvale Rd,,43.756911,-79.310014,,,,,,1
1851,8127,Spadina Rd at Lowther Ave,,43.66905,-79.404899,,,,,,1
1852,9074,York Mills Rd at Old Yonge St,,43.744926,-79.399283,,,,,,1
1853,8266,Steeles Ave West at Carpenter Rd,,43.791875,-79.447721,,,,,,1
1855,9800,McCowan Rd at Walkway to Alanbull Sq,,43.819978,-79.272989,,,,,,1
1856,4069,900 Kennedy Rd,,43.739959,-79.27129,,,,,,1
1857,153,Bathurst St at Bridgman Ave,,43.674989,-79.414992,,,,,,1
1858,4932,Culford Rd at Ridge Point Cres,,43.703315,-79.486721,,,,,,1
1859,3777,Islington Ave at Dixon Rd,,43.696716,-79.546347,,,,,,1
1860,8666,339 The West Mall,,43.637935,-79.564062,,,,,,1
1861,826,College St at Dufferin St,,43.652456,-79.43266,,,,,,2
1862,2887,McNicoll Ave at Eagle Point Rd,,43.805294,-79.326121,,,,,,1
1865,1449,Park St at Natal Ave,,43.710853,-79.253393,,,,,,1
1866,13645,Main St Markham North at Springdale Ave,,43.885657,-79.26252,,,,,,1
1867,340,Bellamy Rd North at Amberjack Blvd (North),,43.77249,-79.24104,,,,,,1
1869,8889,Wilson Ave at Yonge Blvd East Side,,43.741284,-79.414806,,,,,,1
1870,10604,Opposite 689 Warden Ave,,43.707399,-79.2792,,,,,,1
1872,8652,Wellesworth Dr at Torrington Dr North Side,,43.655378,-79.5766,,,,,,1
1874,862,Cosburn Ave at Pape Ave,,43.689514,-79.34864,,,,,,1
1875,9211,Arleta Ave at Tina Crt,,43.743611,-79.501445,,,,,,2
1876,2762,Kennedy Rd at St Clair Ave East North Side,,43.716845,-79.261256,,,,,,1
1877,7448,Windermere Ave at St Olaves Rd,,43.642353,-79.475947,,,,,,1
1878,4194,King St West at Wilson Park Rd,,43.636938,-79.442453,,,,,,2
1879,7444,Weston Rd at Oak St,,43.707859,-79.533756,,,,,,1
1880,6627,Pape Ave at Bain Ave,,43.673043,-79.342537,,,,,,1
1881,11417,Humberwood Blvd at Honeyview Pl,,43.733402,-79.619198,,,,,,1
1883,4826,Brimley Rd at Huntingwood Dr,,43.798641,-79.2736,,,,,,1
1884,10446,2901 Jane St,,43.752898,-79.51641,,,,,,1
1886,367,Bellamy Rd North at Northleigh Dr,,43.769705,-79.240156,,,,,,1
1888,8378,Underhill Dr at Brookbanks Dr South Side,,43.753216,-79.327525,,,,,,1
1890,7054,Runnymede Rd at Colbeck St,,43.655017,-79.477995,,,,,,1
1891,184,Bathurst St at Patricia Ave North Side,,43.78418,-79.44541,,,,,,1
1892,10009,McCowan Rd at Heritage Rd,,43.870059,-79.285397,,,,,,2
1893,10809,Opposite 1801-1821 Albion Rd,,43.745179,-79.611781,,,,,,1
1894,5823,Mt Pleasant Rd at Heath St East,,43.692304,-79.384217,,,,,,1
1895,2735,Jane St at Goldwin Ave South Side,,43.689014,-79.500424,,,,,,1
1896,11568,Thistle Down Blvd at Thistle Down Blvd North Side,,43.738261,-79.556203,,,,,,2
1898,11940,Ian MacDonald Blvd at The Chimneystack Rd,,43.776417,-79.500781,,,,,,1
1899,9219,Arleta Ave at Spenvalley Dr,,43.743797,-79.501596,,,,,,1
1900,6125,St Clair Ave East at Rexleigh Dr,,43.706518,-79.307206,,,,,,2
1902,8295,Steeles Ave West at Norfinch Dr,,43.773471,-79.531611,,,,,,1
1905,9861,Culford Rd at Gulliver Rd,,43.697985,-79.483987,,,,,,2
1906,1475,Rathburn Rd at Elmcrest Rd,,43.647665,-79.586672,,,,,,1
1907,5543,Maple Leaf Dr at Bourdon Ave,,43.711288,-79.495864,,,,,,1
1908,5925,O'Connor Dr at Dohme Ave,,43.710376,-79.308937,,,,,,1
1909,4148,King St East at Sumach St,,43.65528,-79.358705,,,,,,1
1911,4489,Milvan Dr at Millwick Dr (South),,43.756247,-79.560203,,,,,,1
1912,4647,Symington Ave at Antler St,,43.664003,-79.45057,,,,,,1
1913,11520,Royalcrest Rd at Leading Rd,,43.750549,-79.607131,,,,,,1
1914,7530,Bermondsey Rd at Bartley Dr,,43.719609,-79.314316,,,,,,1
1915,10846,45 Ironside Cres,,43.827009,-79.247112,,,,,,1
1916,7059,Runnymede Rd at Dundas St West,,43.665816,-79.482314,,,,,,1
1918,5878,92 Oakdale Rd,,43.739959,-79.525837,,,,,,1
1919,721,Caledonia Rd at Innes Ave North Side,,43.681242,-79.45715,,,,,,1
1920,1460,Queen's Park Cres East at College St North Side,,43.661006,-79.390108,,,,,,1
1922,6305,Coe Hill Dr at Windermere Ave South Side,,43.641321,-79.474063,,,,,,1
1923,9392,Brimley Rd at Opposite Walkway to Audrelane Crt,,43.822934,-79.284963,,,,,,1
1924,7931,Lawson Rd at Irvine Rd,,43.786638,-79.154968,,,,,,1
1925,360,Bellamy Rd North at Jarwick Dr,,43.766248,-79.23877,,,,,,1
1926,5155,Lake Shore Blvd West at Fifteenth St,,43.598973,-79.513857,,,,,,1
1927,646,Brimley Rd at Strode Dr,,43.739443,-79.249414,,,,,,1
1928,6403,Glen Rd at Whitney Ave,,43.683024,-79.373018,,,,,,2
1929,3634,Gateway Blvd South Side at Sunny Glenway East Side,,43.71162,-79.330353,,,,,,1
1930,8844,Wilson Ave at Clayson Rd West Side,,43.717719,-79.523505,,,,,,1
1931,960,Donlands Ave at Cosburn Ave South Side,,43.690679,-79.34159,,,,,,1
1933,2242,Eglinton Ave East at Beachell St,,43.742641,-79.221935,,,,,,1
1934,10658,Finch Ave East at Milliken Blvd,,43.801662,-79.294408,,,,,,2
1935,7096,Scarlett Rd at Lawrence Ave West,,43.697994,-79.522914,,,,,,1
1936,6221,Albion Rd at Calstock Dr,,43.734052,-79.557996,,,,,,1
1937,51,Avenue Rd at Boswell Ave,,43.672692,-79.395882,,,,,,1
1938,4994,Dixon Rd at McManus Rd West Side,,43.699229,-79.537414,,,,,,1
1939,4222,Kingston Rd at Fallingbrook Rd,,43.682406,-79.279087,,,,,,1
1941,2990,Pape Ave at Canning Ave,,43.682431,-79.346265,,,,,,1
1942,758,Carlton St at Sherbourne St,,43.66307,-79.373237,,,,,,2
1943,7123,Senlac Rd at Lurgan Dr,,43.774386,-79.429243,,,,,,1
1944,3062,Queen St East at Pape Ave,,43.661429,-79.338074,,,,,,1
1945,137,Bathurst St at Finch Ave West South Side,,43.773391,-79.443056,,,,,,1
1946,1540,Sheppard Ave East at Leona Dr,,43.762778,-79.404772,,,,,,1
1949,4227,Kingston Rd at Glen Everest Rd East Side,,43.69801,-79.256199,,,,,,1
1951,5959,Ossington Ave at Davenport Rd,,43.674503,-79.430794,,,,,,1
1952,5548,Maple Leaf Dr at Stella St,,43.710329,-79.500126,,,,,,1
1953,2364,Eglinton Ave West at Jane St,,43.684263,-79.499094,,,,,,1
1954,4343,Kipling Ave at Norseman St,,43.631305,-79.530804,,,,,,1
1956,6962,Rockcliffe Blvd at Outlook Ave,,43.680334,-79.490888,,,,,,1
1960,7269,Sheppard Ave West at Brentwood Ave,,43.758338,-79.425494,,,,,,1
1962,4146,King St East at Sherbourne St,,43.651347,-79.368135,,,,,,1
1963,10653,McCowan Rd at Opposite Milliken Wells Shopping Centre,,43.825007,-79.274966,,,,,,1
1966,3372,Broadview Ave at Dundas St East,,43.662248,-79.351175,,,,,,2
1967,749,Caledonia Rd at Tycos Dr,,43.703137,-79.464384,,,,,,1
1968,5615,Martin Grove Rd at Finch Ave West South Side,,43.736015,-79.591413,,,,,,1
1970,8459,Victoria Park Ave at Ferncrest Gate,,43.789178,-79.329409,,,,,,1
1971,1833,Danforth Ave at Leyton Ave West Side,,43.693513,-79.278367,,,,,,1
1975,5676,McCowan Rd at Meldazy Dr (South),,43.762072,-79.247759,,,,,,1
1976,3803,Islington Ave at Humber Summit Lane,,43.761881,-79.573211,,,,,,1
1977,2010,Driftwood Ave at Yewtree Blvd,,43.755583,-79.514158,,,,,,1
1978,3823,Islington Ave at Orrell Ave,,43.656887,-79.528879,,,,,,1
1979,8228,Steeles Ave East at Leslie St,,43.808226,-79.372863,,,,,,1
1982,9571,Opposite 120 McLevin Ave,,43.801589,-79.235258,,,,,,1
1984,1921,Don Mills Rd at The Donway West (North),,43.741002,-79.344645,,,,,,1
1985,7878,John Garland Blvd at Mosque Cres (North),,43.732458,-79.592402,,,,,,1
1986,14272,Victoria Park Ave at Rowena Dr,,43.751604,-79.313175,,,,,,1
1987,6628,Pape Ave at Danforth Ave,,43.679055,-79.344994,,,,,,1
1988,3694,Grenoble Dr at Vendome Pl West Side,,43.715557,-79.328566,,,,,,1
1992,4334,Kipling Ave at Kingsview Blvd,,43.697018,-79.560039,,,,,,1
1993,13524,Castlemore Ave at The Bridle Walk,,43.896173,-79.308065,,,,,,1
1994,725,Caledonia Rd at Keith Ave,,43.690575,-79.461131,,,,,,2
1995,7724,Elmhurst Dr at Albion Rd,,43.724914,-79.550866,,,,,,1
1996,2819,Lawrence Ave East at Mt Pleasant Rd,,43.726022,-79.397414,,,,,,1
1999,3397,Calvington Dr at Lexfield Ave,,43.730181,-79.498916,,,,,,2
2000,392,Birchmount Rd at Chaldean St,,43.793417,-79.303706,,,,,,1
2001,5561,Markham Rd at Ellesmere Rd,,43.776283,-79.231507,,,,,,1
2002,668,Burnhamthorpe Rd at Botfield Ave East Side,,43.650365,-79.541802,,,,,,1
2003,6587,Middlefield Rd at McNicoll Ave,,43.81994,-79.261898,,,,,,1
2004,9879,Chaplin Cres at Duplex Ave,,43.698076,-79.397883,,,,,,2
2005,175,Bathurst St at Melrose Ave,,43.727244,-79.431501,,,,,,1
2006,3728,Horner Ave at Tupper Ave West Side,,43.606975,-79.522193,,,,,,1
2007,7933,Lawson Rd at Meadowvale Rd,,43.785189,-79.160874,,,,,,1
2008,2957,Morningside Ave at Military Trail,,43.789519,-79.194624,,,,,,1
2010,7692,Ellesmere Rd at Kennedy Rd,,43.766017,-79.28076,,,,,,1
2011,6484,Kingston Rd at Beechgrove Dr,,43.776782,-79.173522,,,,,,1
2012,2685,Guildwood Pkwy at Prince Philip Blvd East Side,,43.746141,-79.20265,,,,,,1
2013,5557,Markham Rd at Cougar Crt,,43.744964,-79.219554,,,,,,1
2014,2177,Dundas St West at Paulart Dr East Side,,43.631061,-79.54646,,,,,,1
2015,4083,Kennedy Rd at Flora Dr,,43.748144,-79.274372,,,,,,1
2016,8656,Westhumber Blvd at Kipling Ave,,43.727987,-79.574783,,,,,,1
2017,5727,Midland Ave at Montgomery Ave,,43.79083,-79.28072,,,,,,1
2018,5938,O'Connor Dr at Taylor Dr,,43.699121,-79.323373,,,,,,1
2019,7434,Wasdale Cres at Neptune Dr,,43.731087,-79.434667,,,,,,1
2020,7526,Bayview Ave at Moore Ave,,43.696992,-79.371964,,,,,,1
2023,9553,Breckon Gate at Sheppard Ave East,,43.800287,-79.20671,,,,,,1
2024,4969,Danforth Rd at Wetherby Dr,,43.739556,-79.245634,,,,,,1
2025,11333,York Mills Rd at Old York Mills Rd,,43.744177,-79.404398,,,,,,2
2027,7206,Sheppard Ave East at Markham Rd,,43.793616,-79.239385,,,,,,1
2028,935,Davenport Rd at Christie St,,43.675485,-79.423207,,,,,,1
2029,8065,Renforth Dr at Convair Dr,,43.672344,-79.593633,,,,,,2
2031,368,Opposite 130 Bellamy Rd North,,43.741986,-79.230588,,,,,,1
2032,7162,Sheppard Ave East at Abbotsfield Gate,,43.777372,-79.314502,,,,,,1
2033,13699,Opposite 327 Dixon Rd,,43.695236,-79.555207,,,,,,1
2035,136,Bathurst St at Finch Ave West,,43.773623,-79.44272,,,,,,1
2036,9065,Yonge St at York Mills Rd North Side - York Mills Station,,43.744863,-79.40666,,,,,,1
2037,7546,Beth Nealson Dr at Wicksteed Ave,,43.713018,-79.346254,,,,,,2
2038,11575,Thistle Down Blvd at Albion Rd,,43.736103,-79.560691,,,,,,1
2040,963,Donlands Ave at Glebeholme Blvd,,43.682783,-79.338167,,,,,,1
2041,6211,Williamson Rd at Southwood Dr,,43.674124,-79.296434,,,,,,1
2042,7271,Sheppard Ave West at Chesswood Dr,,43.755399,-79.474597,,,,,,1
2043,3377,Brooklawn Ave at Barkdene Hills,,43.71686,-79.233802,,,,,,1
2044,3240,Yonge St at Richmond St East,,43.651579,-79.378823,,,,,,1
2045,1438,Oriole Pkwy at Gormley Ave,,43.693805,-79.401999,,,,,,1
2046,5809,Mt Pleasant Rd at Mt Pleasant Cemetery,,43.694928,-79.385302,,,,,,1
2047,2817,Lawrence Ave East at Mildenhall Rd,,43.728507,-79.386361,,,,,,1
2048,1079,Gerrard St East at Ashdale Ave,,43.67239,-79.321719,,,,,,2
2049,5847,Mt Pleasant Rd at Teddington Park Ave,,43.733864,-79.399593,,,,,,2
2050,13925,St Regis Cres at Keele St East Side,,43.754624,-79.487752,,,,,,1
2051,4387,Kipling Ave at The Westway,,43.685484,-79.554422,,,,,,1
2052,905,Danforth Ave at Pape Ave,,43.679046,-79.344736,,,,,,1
2054,2546,Finch Ave East at Sandhurst Cir (East),,43.808657,-79.262987,,,,,,1
2055,8738,Weston Rd at Kenhar Dr South Side,,43.761317,-79.544728,,,,,,1
2056,5877,550 Oakdale Rd,,43.750135,-79.526856,,,,,,1
2057,3710,Horner Ave at Belvia Rd,,43.605324,-79.528711,,,,,,1
2061,5175,2155 Lake Shore Blvd West,,43.625705,-79.479741,,,,,,1
2062,463,Birchmount Rd at Highway 401 - Walkway North of Rolark,,43.77185,-79.293899,,,,,,1
2063,5680,Midland Ave at Artillery St,,43.818006,-79.293639,,,,,,1
2064,8942,Yonge Blvd at Felbrigg Ave,,43.736621,-79.409779,,,,,,1
2065,1323,Midland Ave at Aylesworth Ave North Side,,43.714067,-79.249318,,,,,,1
2066,6258,Berry Rd at Cloverhill Rd,,43.636958,-79.490027,,,,,,1
2067,3850,Islington Ave at Vanhill Ave,,43.757355,-79.570029,,,,,,1
2068,7250,Sheppard Ave East at Victoria Park Ave,,43.775039,-79.323295,,,,,,1
2069,1896,Dawes Rd at Gower St North Side,,43.702604,-79.296851,,,,,,1
2070,1182,Jones Ave at Boultbee Ave,,43.672735,-79.337193,,,,,,1
2071,5527,MacDonell Ave at Queen St West North Side,,43.640726,-79.437986,,,,,,1
